{"airports": [{"iata": "AAA", "icao": "NTGA", "name": "Anaa Airport", "municipality": "Anaa", "country": "PF", "type": "medium_airport", "lat": -17.3526, "lon": -145.51}, {"iata": "AAC", "icao": "HEAR", "name": "El Arish International Airport", "municipality": "El Arish", "country": "EG", "type": "large_airport", "lat": 31.0553, "lon": 33.828}, {"iata": "AAE", "icao": "DABB", "name": "Annaba Rabah Bitat Airport", "municipality": "Annaba", "country": "DZ", "type": "large_airport", "lat": 36.8268, "lon": 7.8133}, {"iata": "AAL", "icao": "EKYT", "name": "Aalborg Airport", "municipality": "Aalborg", "country": "DK", "type": "large_airport", "lat": 57.0948, "lon": 9.8499}, {"iata": "AAM", "icao": "FAMD", "name": "Malamala Airport", "municipality": "Malamala", "country": "ZA", "type": "medium_airport", "lat": -24.8169, "lon": 31.5441}, {"iata": "AAN", "icao": "OMAL", "name": "Al Ain International Airport", "municipality": "Al Ain", "country": "AE", "type": "large_airport", "lat": 24.2617, "lon": 55.6092}, {"iata": "AAO", "icao": "SVAN", "name": "Anaco Airport", "municipality": "Anaco", "country": "VE", "type": "medium_airport", "lat": 9.4302, "lon": -64.4707}, {"iata": "AAP", "icao": "WALS", "name": "Aji Pangeran Tumenggung Pranoto International Airport", "municipality": "Samarinda", "country": "ID", "type": "medium_airport", "lat": -0.3745, "lon": 117.2501}, {"iata": "AAQ", "icao": "URKA", "name": "Anapa Vityazevo Airport", "municipality": "Krasnyi Kurgan", "country": "RU", "type": "medium_airport", "lat": 45.0021, "lon": 37.3473}, {"iata": "AAR", "icao": "EKAH", "name": "Aarhus Airport", "municipality": "Aarhus", "country": "DK", "type": "large_airport", "lat": 56.3033, "lon": 10.6183}, {"iata": "AAT", "icao": "ZWAT", "name": "Altay Xuedu Airport", "municipality": "Altay", "country": "CN", "type": "medium_airport", "lat": 47.7499, "lon": 88.0858}, {"iata": "AAV", "icao": "RPMA", "name": "Allah Valley Airport", "municipality": "Surallah", "country": "PH", "type": "medium_airport", "lat": 6.3679, "lon": 124.7524}, {"iata": "AAX", "icao": "SBAX", "name": "Romeu Zema Airport", "municipality": "Araxá", "country": "BR", "type": "medium_airport", "lat": -19.5632, "lon": -46.9604}, {"iata": "AAY", "icao": "OYGD", "name": "Al Ghaydah International Airport", "municipality": "Al Ghaydah", "country": "YE", "type": "medium_airport", "lat": 16.1933, "lon": 52.1742}, {"iata": "ABA", "icao": "UNAA", "name": "Abakan International Airport", "municipality": "Abakan", "country": "RU", "type": "large_airport", "lat": 53.74, "lon": 91.385}, {"iata": "ABB", "icao": "DNAS", "name": "Asaba International Airport", "municipality": "Asaba", "country": "NG", "type": "large_airport", "lat": 6.2042, "lon": 6.6653}, {"iata": "ABC", "icao": "LEAB", "name": "Albacete Airport / Los Llanos Air Base", "municipality": "Albacete", "country": "ES", "type": "medium_airport", "lat": 38.9485, "lon": -1.8635}, {"iata": "ABD", "icao": "OIAA", "name": "Abadan Ayatollah Jami International Airport", "municipality": "Abadan", "country": "IR", "type": "large_airport", "lat": 30.3679, "lon": 48.2301}, {"iata": "ABE", "icao": "KABE", "name": "Lehigh Valley International Airport", "municipality": "Allentown/Bethlehem", "country": "US", "type": "medium_airport", "lat": 40.6518, "lon": -75.4428}, {"iata": "ABI", "icao": "KABI", "name": "Abilene Regional Airport", "municipality": "Abilene", "country": "US", "type": "medium_airport", "lat": 32.4113, "lon": -99.6819}, {"iata": "ABJ", "icao": "DIAP", "name": "Félix-Houphouët-Boigny International Airport", "municipality": "Abidjan", "country": "CI", "type": "large_airport", "lat": 5.2614, "lon": -3.9263}, {"iata": "ABK", "icao": "HAKD", "name": "Kebri Dahar Airport", "municipality": "Kebri Dahar", "country": "ET", "type": "medium_airport", "lat": 6.7326, "lon": 44.2413}, {"iata": "ABL", "icao": "PAFM", "name": "Ambler Airport", "municipality": "Ambler", "country": "US", "type": "medium_airport", "lat": 67.1055, "lon": -157.8553}, {"iata": "ABQ", "icao": "KABQ", "name": "Albuquerque International Sunport", "municipality": "Albuquerque", "country": "US", "type": "large_airport", "lat": 35.04, "lon": -106.6089}, {"iata": "ABR", "icao": "KABR", "name": "Aberdeen Regional Airport", "municipality": "Aberdeen", "country": "US", "type": "medium_airport", "lat": 45.4491, "lon": -98.4218}, {"iata": "ABS", "icao": "HEBL", "name": "Abu Simbel Airport", "municipality": "Abu Simbel", "country": "EG", "type": "medium_airport", "lat": 22.3759, "lon": 31.6117}, {"iata": "ABT", "icao": "OEBA", "name": "King Saud Bin Abdulaziz (Al Baha) Airport", "municipality": "Al-Baha", "country": "SA", "type": "medium_airport", "lat": 20.2985, "lon": 41.6362}, {"iata": "ABV", "icao": "DNAA", "name": "Nnamdi Azikiwe International Airport", "municipality": "Abuja", "country": "NG", "type": "large_airport", "lat": 9.0068, "lon": 7.2632}, {"iata": "ABX", "icao": "YMAY", "name": "Albury Airport", "municipality": "East Albury", "country": "AU", "type": "medium_airport", "lat": -36.0668, "lon": 146.9591}, {"iata": "ABY", "icao": "KABY", "name": "Southwest Georgia Regional Airport", "municipality": "Albany", "country": "US", "type": "medium_airport", "lat": 31.5329, "lon": -84.1962}, {"iata": "ABZ", "icao": "EGPD", "name": "Aberdeen International Airport", "municipality": "Aberdeen", "country": "GB", "type": "large_airport", "lat": 57.2019, "lon": -2.1978}, {"iata": "ACA", "icao": "MMAA", "name": "General Juan N. Álvarez International Airport", "municipality": "Acapulco", "country": "MX", "type": "large_airport", "lat": 16.7571, "lon": -99.7531}, {"iata": "ACC", "icao": "DGAA", "name": "Kotoka International Airport", "municipality": "Accra", "country": "GH", "type": "large_airport", "lat": 5.6052, "lon": -0.1668}, {"iata": "ACE", "icao": "GCRR", "name": "César Manrique-Lanzarote Airport", "municipality": "San Bartolomé", "country": "ES", "type": "large_airport", "lat": 28.9455, "lon": -13.6052}, {"iata": "ACH", "icao": "LSZR", "name": "Sankt Gallen Altenrhein Airport", "municipality": "St. Gallen", "country": "CH", "type": "medium_airport", "lat": 47.485, "lon": 9.5608}, {"iata": "ACI", "icao": "EGJA", "name": "Alderney Airport", "municipality": "Saint Anne", "country": "GG", "type": "medium_airport", "lat": 49.7061, "lon": -2.2147}, {"iata": "ACJ", "icao": "VCCA", "name": "Anuradhapura Airport", "municipality": "Anuradhapura", "country": "LK", "type": "medium_airport", "lat": 8.3015, "lon": 80.4285}, {"iata": "ACK", "icao": "KACK", "name": "Nantucket Memorial Airport", "municipality": "Nantucket", "country": "US", "type": "medium_airport", "lat": 41.2531, "lon": -70.0602}, {"iata": "ACN", "icao": "MMCC", "name": "Ciudad Acuña International Airport", "municipality": "Ciudad Acuña", "country": "MX", "type": "medium_airport", "lat": 29.3337, "lon": -101.1006}, {"iata": "ACS", "icao": "UNKS", "name": "Achinsk Airport", "municipality": "Achinsk", "country": "RU", "type": "medium_airport", "lat": 56.2692, "lon": 90.5751}, {"iata": "ACT", "icao": "KACT", "name": "Waco Regional Airport", "municipality": "Waco", "country": "US", "type": "medium_airport", "lat": 31.6113, "lon": -97.2305}, {"iata": "ACV", "icao": "KACV", "name": "California Redwood Coast-Humboldt County Airport", "municipality": "Arcata/Eureka", "country": "US", "type": "medium_airport", "lat": 40.9781, "lon": -124.109}, {"iata": "ACX", "icao": "ZUYI", "name": "Xingyi Wanfenglin Airport", "municipality": "Xingyi", "country": "CN", "type": "medium_airport", "lat": 25.0834, "lon": 104.9608}, {"iata": "ACY", "icao": "KACY", "name": "Atlantic City International Airport", "municipality": "Atlantic City", "country": "US", "type": "medium_airport", "lat": 39.4562, "lon": -74.5775}, {"iata": "ACZ", "icao": "OIZB", "name": "Zabol Airport", "municipality": "Zabol", "country": "IR", "type": "medium_airport", "lat": 31.0983, "lon": 61.5439}, {"iata": "ADA", "icao": "LTAF", "name": "Adana Şakirpaşa Airport", "municipality": "Seyhan", "country": "TR", "type": "large_airport", "lat": 36.9822, "lon": 35.2804}, {"iata": "ADB", "icao": "LTBJ", "name": "Adnan Menderes International Airport", "municipality": "Gaziemir", "country": "TR", "type": "large_airport", "lat": 38.2924, "lon": 27.157}, {"iata": "ADD", "icao": "HAAB", "name": "Addis Ababa Bole International Airport", "municipality": "Addis Ababa", "country": "ET", "type": "large_airport", "lat": 8.9779, "lon": 38.7993}, {"iata": "ADE", "icao": "OYAA", "name": "Aden International Airport", "municipality": "Aden", "country": "YE", "type": "large_airport", "lat": 12.8296, "lon": 45.03}, {"iata": "ADF", "icao": "LTCP", "name": "Adıyaman Airport", "municipality": "Adıyaman", "country": "TR", "type": "medium_airport", "lat": 37.7314, "lon": 38.4689}, {"iata": "ADI", "icao": "FYAR", "name": "Arandis Airport", "municipality": "Arandis", "country": "NA", "type": "medium_airport", "lat": -22.4619, "lon": 14.9793}, {"iata": "ADJ", "icao": "OJAM", "name": "Marka International (Amman Civil) Airport", "municipality": "Amman", "country": "JO", "type": "large_airport", "lat": 31.9727, "lon": 35.9916}, {"iata": "ADK", "icao": "PADK", "name": "Adak Airport", "municipality": "Adak", "country": "US", "type": "medium_airport", "lat": 51.8836, "lon": -176.6428}, {"iata": "ADL", "icao": "YPAD", "name": "Adelaide International Airport", "municipality": "Adelaide", "country": "AU", "type": "large_airport", "lat": -34.9475, "lon": 138.5334}, {"iata": "ADP", "icao": "VCCG", "name": "Ampara Airport", "municipality": "Ampara", "country": "LK", "type": "medium_airport", "lat": 7.3367, "lon": 81.6239}, {"iata": "ADQ", "icao": "PADQ", "name": "Kodiak Airport", "municipality": "Kodiak", "country": "US", "type": "medium_airport", "lat": 57.75, "lon": -152.494}, {"iata": "ADT", "icao": "KADH", "name": "Ada Regional Airport", "municipality": "Ada", "country": "US", "type": "medium_airport", "lat": 34.8052, "lon": -96.672}, {"iata": "ADU", "icao": "OITL", "name": "Ardabil Airport", "municipality": "Ardabil", "country": "IR", "type": "medium_airport", "lat": 38.3257, "lon": 48.4244}, {"iata": "ADW", "icao": "KADW", "name": "Joint Base Andrews", "municipality": "Camp Springs", "country": "US", "type": "medium_airport", "lat": 38.8108, "lon": -76.867}, {"iata": "ADX", "icao": "EGQL", "name": "Leuchars Station Airfield", "municipality": "Leuchars, Fife", "country": "GB", "type": "medium_airport", "lat": 56.374, "lon": -2.8689}, {"iata": "ADZ", "icao": "SKSP", "name": "Gustavo Rojas Pinilla International Airport", "municipality": "San Andrés", "country": "CO", "type": "large_airport", "lat": 12.5836, "lon": -81.7112}, {"iata": "AEB", "icao": "ZGBS", "name": "Baise (Bose) Bama Airport", "municipality": "Baise (Tianyang)", "country": "CN", "type": "medium_airport", "lat": 23.7206, "lon": 106.96}, {"iata": "AEG", "icao": "WIME", "name": "Aek Godang Airport", "municipality": "Padang Sidempuan", "country": "ID", "type": "medium_airport", "lat": 1.4001, "lon": 99.4305}, {"iata": "AEH", "icao": "FTTC", "name": "Abeche Airport", "municipality": "Abeche", "country": "TD", "type": "medium_airport", "lat": 13.847, "lon": 20.8443}, {"iata": "AEP", "icao": "SABE", "name": "Aeroparque Jorge Newbery", "municipality": "Buenos Aires", "country": "AR", "type": "large_airport", "lat": -34.5594, "lon": -58.4155}, {"iata": "AER", "icao": "URSS", "name": "Sochi International Airport", "municipality": "Sochi", "country": "RU", "type": "large_airport", "lat": 43.4499, "lon": 39.9566}, {"iata": "AES", "icao": "ENAL", "name": "Ålesund Airport", "municipality": "Ålesund", "country": "NO", "type": "large_airport", "lat": 62.5604, "lon": 6.1108}, {"iata": "AEU", "icao": "OIBA", "name": "Abu Musa Island Airport", "municipality": "Abu Musa", "country": "IR", "type": "medium_airport", "lat": 25.8757, "lon": 55.033}, {"iata": "AEX", "icao": "KAEX", "name": "Alexandria International Airport", "municipality": "Alexandria", "country": "US", "type": "medium_airport", "lat": 31.3258, "lon": -92.5467}, {"iata": "AEY", "icao": "BIAR", "name": "Akureyri International Airport", "municipality": "Akureyri", "country": "IS", "type": "large_airport", "lat": 65.6566, "lon": -18.072}, {"iata": "AFA", "icao": "SAMR", "name": "Suboficial Ay Santiago Germano Airport", "municipality": "San Rafael", "country": "AR", "type": "medium_airport", "lat": -34.5883, "lon": -68.4039}, {"iata": "AFL", "icao": "SBAT", "name": "Piloto Osvaldo Marques Dias Airport", "municipality": "Alta Floresta", "country": "BR", "type": "medium_airport", "lat": -9.8664, "lon": -56.1063}, {"iata": "AFW", "icao": "KAFW", "name": "Perot Field/Fort Worth Alliance Airport", "municipality": "Fort Worth", "country": "US", "type": "medium_airport", "lat": 32.9904, "lon": -97.3195}, {"iata": "AFY", "icao": "LTAH", "name": "Afyon Air Base", "municipality": "Afyonkarahisar", "country": "TR", "type": "medium_airport", "lat": 38.7264, "lon": 30.6011}, {"iata": "AFZ", "icao": "OIMS", "name": "Sabzevar National Airport", "municipality": "Sabzevar", "country": "IR", "type": "medium_airport", "lat": 36.1681, "lon": 57.5952}, {"iata": "AGA", "icao": "GMAD", "name": "Al Massira Airport", "municipality": "Agadir (Temsia)", "country": "MA", "type": "large_airport", "lat": 30.3225, "lon": -9.412}, {"iata": "AGB", "icao": "EDMA", "name": "Augsburg Airport", "municipality": "Augsburg", "country": "DE", "type": "medium_airport", "lat": 48.4253, "lon": 10.9317}, {"iata": "AGC", "icao": "KAGC", "name": "Allegheny County Airport", "municipality": "Pittsburgh", "country": "US", "type": "medium_airport", "lat": 40.3544, "lon": -79.9302}, {"iata": "AGF", "icao": "LFBA", "name": "Agen La Garenne airport", "municipality": "Agen", "country": "FR", "type": "medium_airport", "lat": 44.1742, "lon": 0.5931}, {"iata": "AGH", "icao": "ESTA", "name": "Ängelholm-Helsingborg Airport", "municipality": "Ängelholm", "country": "SE", "type": "medium_airport", "lat": 56.2961, "lon": 12.8471}, {"iata": "AGP", "icao": "LEMG", "name": "Málaga-Costa del Sol Airport", "municipality": "Málaga", "country": "ES", "type": "large_airport", "lat": 36.6749, "lon": -4.4991}, {"iata": "AGR", "icao": "VIAG", "name": "Agra Airport / Agra Air Force Station", "municipality": "Agra", "country": "IN", "type": "medium_airport", "lat": 27.158, "lon": 77.961}, {"iata": "AGS", "icao": "KAGS", "name": "Augusta Regional At Bush Field", "municipality": "Augusta", "country": "US", "type": "medium_airport", "lat": 33.3699, "lon": -81.9645}, {"iata": "AGT", "icao": "SGES", "name": "Guaraní International Airport", "municipality": "Ciudad del Este", "country": "PY", "type": "large_airport", "lat": -25.4572, "lon": -54.8395}, {"iata": "AGU", "icao": "MMAS", "name": "Aguascalientes International Airport", "municipality": "Aguascalientes", "country": "MX", "type": "large_airport", "lat": 21.6996, "lon": -102.3184}, {"iata": "AGV", "icao": "SVAC", "name": "Oswaldo Guevara Mujica Airport", "municipality": "Acarigua", "country": "VE", "type": "medium_airport", "lat": 9.5534, "lon": -69.2379}, {"iata": "AGX", "icao": "VOAT", "name": "Agatti Airport", "municipality": "Agatti", "country": "IN", "type": "medium_airport", "lat": 10.8237, "lon": 72.176}, {"iata": "AGZ", "icao": "FAAG", "name": "Aggeneys Airport", "municipality": "Aggeneys", "country": "ZA", "type": "medium_airport", "lat": -29.2818, "lon": 18.8139}, {"iata": "AHA", "icao": "VEAP", "name": "Maa Mahamaya Airport", "municipality": "Ambikapur", "country": "IN", "type": "medium_airport", "lat": 22.9875, "lon": 83.1961}, {"iata": "AHB", "icao": "OEAB", "name": "Abha International Airport", "municipality": "Abha", "country": "SA", "type": "large_airport", "lat": 18.2404, "lon": 42.6566}, {"iata": "AHE", "icao": "NTHE", "name": "Ahe Airport", "municipality": "Ahe Atoll", "country": "PF", "type": "medium_airport", "lat": -14.4281, "lon": -146.257}, {"iata": "AHJ", "icao": "ZUHY", "name": "Hongyuan Airport", "municipality": "Ngawa (Hongyuan)", "country": "CN", "type": "medium_airport", "lat": 32.5315, "lon": 102.3522}, {"iata": "AHN", "icao": "KAHN", "name": "Athens Ben Epps Airport", "municipality": "Athens", "country": "US", "type": "medium_airport", "lat": 33.9488, "lon": -83.3256}, {"iata": "AHO", "icao": "LIEA", "name": "Alghero-Fertilia Airport", "municipality": "Alghero", "country": "IT", "type": "medium_airport", "lat": 40.6321, "lon": 8.2908}, {"iata": "AHU", "icao": "GMTA", "name": "Cherif Al Idrissi Airport", "municipality": "Al Hoceima", "country": "MA", "type": "medium_airport", "lat": 35.1771, "lon": -3.8395}, {"iata": "AIA", "icao": "KAIA", "name": "Alliance Municipal Airport", "municipality": "Alliance", "country": "US", "type": "medium_airport", "lat": 42.0525, "lon": -102.804}, {"iata": "AIN", "icao": "PAWI", "name": "Wainwright Airport", "municipality": "Wainwright", "country": "US", "type": "medium_airport", "lat": 70.638, "lon": -159.995}, {"iata": "AJA", "icao": "LFKJ", "name": "Ajaccio Napoléon Bonaparte airport", "municipality": "Ajaccio", "country": "FR", "type": "medium_airport", "lat": 41.9236, "lon": 8.8029}, {"iata": "AJF", "icao": "OESK", "name": "Al-Jawf International Airport", "municipality": "Al-Jawf", "country": "SA", "type": "large_airport", "lat": 29.7833, "lon": 40.1009}, {"iata": "AJI", "icao": "LTCO", "name": "Ağrı Airport", "municipality": "Ağrı", "country": "TR", "type": "medium_airport", "lat": 39.6556, "lon": 43.0257}, {"iata": "AJL", "icao": "VELP", "name": "Lengpui Airport", "municipality": "Aizawl (Lengpui)", "country": "IN", "type": "medium_airport", "lat": 23.8406, "lon": 92.6197}, {"iata": "AJN", "icao": "FMCV", "name": "Ouani Airport", "municipality": "Ouani", "country": "KM", "type": "medium_airport", "lat": -12.131, "lon": 44.43}, {"iata": "AJR", "icao": "ESNX", "name": "Arvidsjaur Airport", "municipality": "Arvidsjaur", "country": "SE", "type": "medium_airport", "lat": 65.5903, "lon": 19.2819}, {"iata": "AJU", "icao": "SBAR", "name": "Aracaju - Santa Maria Airport", "municipality": "Aracaju", "country": "BR", "type": "medium_airport", "lat": -10.9839, "lon": -37.0729}, {"iata": "AJY", "icao": "DRZA", "name": "Mano Dayak International Airport", "municipality": "Agadez", "country": "NE", "type": "medium_airport", "lat": 16.966, "lon": 8.0001}, {"iata": "AKC", "icao": "KAKR", "name": "Akron Fulton International Airport", "municipality": "Akron", "country": "US", "type": "medium_airport", "lat": 41.0374, "lon": -81.4678}, {"iata": "AKD", "icao": "VAAK", "name": "Akola Airport", "municipality": "Akola", "country": "IN", "type": "medium_airport", "lat": 20.6989, "lon": 77.0569}, {"iata": "AKF", "icao": "HLKF", "name": "Kufra Airport", "municipality": "Kufra", "country": "LY", "type": "medium_airport", "lat": 24.1787, "lon": 23.314}, {"iata": "AKH", "icao": "OEPS", "name": "Prince Sultan Air Base", "municipality": "Al Kharj", "country": "SA", "type": "medium_airport", "lat": 24.0627, "lon": 47.5805}, {"iata": "AKJ", "icao": "RJEC", "name": "Asahikawa Airport", "municipality": "Higashikagura", "country": "JP", "type": "medium_airport", "lat": 43.6708, "lon": 142.447}, {"iata": "AKL", "icao": "NZAA", "name": "Auckland International Airport", "municipality": "Auckland", "country": "NZ", "type": "large_airport", "lat": -37.012, "lon": 174.7863}, {"iata": "AKN", "icao": "PAKN", "name": "King Salmon Airport", "municipality": "King Salmon", "country": "US", "type": "medium_airport", "lat": 58.6778, "lon": -156.652}, {"iata": "AKP", "icao": "PAKP", "name": "Anaktuvuk Pass Airport", "municipality": "Anaktuvuk Pass", "country": "US", "type": "medium_airport", "lat": 68.1336, "lon": -151.743}, {"iata": "AKR", "icao": "DNAK", "name": "Akure Airport", "municipality": "Akure", "country": "NG", "type": "medium_airport", "lat": 7.2467, "lon": 5.301}, {"iata": "AKT", "icao": "LCRA", "name": "RAF Akrotiri", "municipality": "Akrotiri", "country": "CY", "type": "medium_airport", "lat": 34.5904, "lon": 32.9879}, {"iata": "AKU", "icao": "ZWAK", "name": "Aksu Hongqipo Airport", "municipality": "Aksu (Onsu)", "country": "CN", "type": "medium_airport", "lat": 41.2625, "lon": 80.2917}, {"iata": "AKW", "icao": "OIAG", "name": "Aghajari Airport", "municipality": "Omidiyeh", "country": "IR", "type": "medium_airport", "lat": 30.7444, "lon": 49.6772}, {"iata": "AKX", "icao": "UATT", "name": "Aktobe International Airport", "municipality": "Aktobe", "country": "KZ", "type": "large_airport", "lat": 50.2481, "lon": 57.2041}, {"iata": "AKY", "icao": "VYSW", "name": "Sittwe Airport", "municipality": "Sittwe", "country": "MM", "type": "medium_airport", "lat": 20.1332, "lon": 92.8707}, {"iata": "ALA", "icao": "UAAA", "name": "Almaty International Airport", "municipality": "Almaty", "country": "KZ", "type": "large_airport", "lat": 43.3543, "lon": 77.0428}, {"iata": "ALB", "icao": "KALB", "name": "Albany International Airport", "municipality": "Albany", "country": "US", "type": "large_airport", "lat": 42.7483, "lon": -73.8017}, {"iata": "ALC", "icao": "LEAL", "name": "Alicante-Elche Miguel Hernández Airport", "municipality": "Alicante", "country": "ES", "type": "large_airport", "lat": 38.2822, "lon": -0.5582}, {"iata": "ALF", "icao": "ENAT", "name": "Alta Airport", "municipality": "Alta", "country": "NO", "type": "medium_airport", "lat": 69.9761, "lon": 23.3717}, {"iata": "ALG", "icao": "DAAG", "name": "Houari Boumediene Airport", "municipality": "Algiers", "country": "DZ", "type": "large_airport", "lat": 36.6939, "lon": 3.2145}, {"iata": "ALH", "icao": "YABA", "name": "Albany Airport", "municipality": "Albany", "country": "AU", "type": "medium_airport", "lat": -34.9433, "lon": 117.8089}, {"iata": "ALI", "icao": "KALI", "name": "Alice International Airport", "municipality": "Alice", "country": "US", "type": "medium_airport", "lat": 27.7409, "lon": -98.0269}, {"iata": "ALJ", "icao": "FAAB", "name": "Alexander Bay Airport", "municipality": "Alexander Bay", "country": "ZA", "type": "medium_airport", "lat": -28.575, "lon": 16.5333}, {"iata": "ALM", "icao": "KALM", "name": "Alamogordo White Sands Regional Airport", "municipality": "Alamogordo", "country": "US", "type": "medium_airport", "lat": 32.8378, "lon": -105.9931}, {"iata": "ALN", "icao": "KALN", "name": "St Louis Regional Airport", "municipality": "Alton/St Louis", "country": "US", "type": "medium_airport", "lat": 38.8903, "lon": -90.046}, {"iata": "ALO", "icao": "KALO", "name": "Waterloo Regional Airport", "municipality": "Waterloo", "country": "US", "type": "medium_airport", "lat": 42.5571, "lon": -92.4003}, {"iata": "ALP", "icao": "OSAP", "name": "Aleppo International Airport", "municipality": "Aleppo", "country": "SY", "type": "large_airport", "lat": 36.1813, "lon": 37.2269}, {"iata": "ALR", "icao": "NZLX", "name": "Alexandra Aerodrome", "municipality": "Alexandra", "country": "NZ", "type": "medium_airport", "lat": -45.2105, "lon": 169.3711}, {"iata": "ALS", "icao": "KALS", "name": "San Luis Valley Regional Airport/Bergman Field", "municipality": "Alamosa", "country": "US", "type": "medium_airport", "lat": 37.4349, "lon": -105.867}, {"iata": "ALW", "icao": "KALW", "name": "Walla Walla Regional Airport", "municipality": "Walla Walla", "country": "US", "type": "medium_airport", "lat": 46.0949, "lon": -118.288}, {"iata": "AMA", "icao": "KAMA", "name": "Rick Husband Amarillo International Airport", "municipality": "Amarillo", "country": "US", "type": "medium_airport", "lat": 35.2179, "lon": -101.7064}, {"iata": "AMD", "icao": "VAAH", "name": "Sardar Vallabh Patel International Airport", "municipality": "Ahmedabad", "country": "IN", "type": "large_airport", "lat": 23.0772, "lon": 72.6347}, {"iata": "AMH", "icao": "HAAM", "name": "Arba Minch Airport", "municipality": "Arba Minch", "country": "ET", "type": "medium_airport", "lat": 6.0394, "lon": 37.5905}, {"iata": "AMM", "icao": "OJAI", "name": "Queen Alia International Airport", "municipality": "Amman", "country": "JO", "type": "large_airport", "lat": 31.7226, "lon": 35.9932}, {"iata": "AMQ", "icao": "WAPP", "name": "Pattimura International Airport", "municipality": "Ambon", "country": "ID", "type": "large_airport", "lat": -3.7103, "lon": 128.089}, {"iata": "AMS", "icao": "EHAM", "name": "Amsterdam Airport Schiphol", "municipality": "Amsterdam", "country": "NL", "type": "large_airport", "lat": 52.3086, "lon": 4.7639}, {"iata": "AMV", "icao": "ULDD", "name": "Amderma Airport", "municipality": "Amderma", "country": "RU", "type": "medium_airport", "lat": 69.7633, "lon": 61.5564}, {"iata": "AMZ", "icao": "NZAR", "name": "Ardmore Airport", "municipality": "Manurewa", "country": "NZ", "type": "medium_airport", "lat": -37.0297, "lon": 174.973}, {"iata": "ANB", "icao": "KANB", "name": "Anniston Regional Airport", "municipality": "Anniston", "country": "US", "type": "medium_airport", "lat": 33.5882, "lon": -85.8581}, {"iata": "ANC", "icao": "PANC", "name": "Ted Stevens Anchorage International Airport", "municipality": "Anchorage", "country": "US", "type": "large_airport", "lat": 61.179, "lon": -149.9926}, {"iata": "AND", "icao": "KAND", "name": "Anderson Regional Airport", "municipality": "Anderson", "country": "US", "type": "medium_airport", "lat": 34.4946, "lon": -82.7094}, {"iata": "ANE", "icao": "LFJR", "name": "Angers Marcé airport", "municipality": "Angers", "country": "FR", "type": "medium_airport", "lat": 47.5603, "lon": -0.3122}, {"iata": "ANF", "icao": "SCFA", "name": "Andrés Sabella Gálvez International Airport", "municipality": "Antofagasta", "country": "CL", "type": "large_airport", "lat": -23.4453, "lon": -70.4452}, {"iata": "ANG", "icao": "LFBU", "name": "Angoulême Brie-Champniers airport", "municipality": "Angoulême", "country": "FR", "type": "medium_airport", "lat": 45.7292, "lon": 0.2215}, {"iata": "ANI", "icao": "PANI", "name": "Aniak Airport", "municipality": "Aniak", "country": "US", "type": "medium_airport", "lat": 61.5816, "lon": -159.543}, {"iata": "ANK", "icao": "LTAD", "name": "Etimesgut Air Base", "municipality": "Ankara", "country": "TR", "type": "medium_airport", "lat": 39.9498, "lon": 32.6886}, {"iata": "ANM", "icao": "FMNH", "name": "Antsirabe Airport", "municipality": "Antsirabe", "country": "MG", "type": "medium_airport", "lat": -14.9994, "lon": 50.3202}, {"iata": "ANN", "icao": "PANT", "name": "Annette Island Airport", "municipality": "Metlakatla", "country": "US", "type": "medium_airport", "lat": 55.0377, "lon": -131.5726}, {"iata": "ANR", "icao": "EBAW", "name": "Antwerp International Airport (Deurne)", "municipality": "Antwerp", "country": "BE", "type": "medium_airport", "lat": 51.1907, "lon": 4.4632}, {"iata": "ANU", "icao": "TAPA", "name": "V. C. Bird International Airport", "municipality": "Osbourn", "country": "AG", "type": "large_airport", "lat": 17.1367, "lon": -61.7927}, {"iata": "ANV", "icao": "PANV", "name": "Anvik Airport", "municipality": "Anvik", "country": "US", "type": "medium_airport", "lat": 62.6467, "lon": -160.191}, {"iata": "ANX", "icao": "ENAN", "name": "Andøya Airport, Andenes", "municipality": "Andenes", "country": "NO", "type": "medium_airport", "lat": 69.2952, "lon": 16.1394}, {"iata": "AOC", "icao": "EDAC", "name": "Leipzig–Altenburg Airport", "municipality": "Nobitz", "country": "DE", "type": "medium_airport", "lat": 50.9819, "lon": 12.5064}, {"iata": "AOE", "icao": "LTBY", "name": "Hasan Polatkan Airport", "municipality": "Eskişehir", "country": "TR", "type": "large_airport", "lat": 39.8116, "lon": 30.5193}, {"iata": "AOG", "icao": "ZYAS", "name": "Anshan Teng'ao Airport / Anshan Air Base", "municipality": "Anshan", "country": "CN", "type": "medium_airport", "lat": 41.1053, "lon": 122.854}, {"iata": "AOI", "icao": "LIPY", "name": "Marche Airport", "municipality": "Falconara Marittima (AN)", "country": "IT", "type": "medium_airport", "lat": 43.6163, "lon": 13.3623}, {"iata": "AOJ", "icao": "RJSA", "name": "Aomori Airport", "municipality": "Aomori", "country": "JP", "type": "large_airport", "lat": 40.7338, "lon": 140.6895}, {"iata": "AOK", "icao": "LGKP", "name": "Karpathos Airport", "municipality": "Karpathos Island", "country": "GR", "type": "medium_airport", "lat": 35.4214, "lon": 27.146}, {"iata": "AOL", "icao": "SARL", "name": "Paso De Los Libres Airport", "municipality": "Paso de los Libres", "country": "AR", "type": "medium_airport", "lat": -29.6894, "lon": -57.1521}, {"iata": "AOO", "icao": "KAOO", "name": "Altoona Blair County Airport", "municipality": "Altoona", "country": "US", "type": "medium_airport", "lat": 40.2964, "lon": -78.32}, {"iata": "AOR", "icao": "WMKA", "name": "Sultan Abdul Halim Airport", "municipality": "Alor Satar", "country": "MY", "type": "medium_airport", "lat": 6.1897, "lon": 100.398}, {"iata": "AOT", "icao": "LIMW", "name": "Aosta Corrado Gex Airport", "municipality": "Saint-Christophe (AO)", "country": "IT", "type": "medium_airport", "lat": 45.7386, "lon": 7.3683}, {"iata": "APA", "icao": "KAPA", "name": "Centennial Airport", "municipality": "Denver", "country": "US", "type": "medium_airport", "lat": 39.5701, "lon": -104.849}, {"iata": "APF", "icao": "KAPF", "name": "Naples Municipal Airport", "municipality": "Naples", "country": "US", "type": "medium_airport", "lat": 26.1526, "lon": -81.7753}, {"iata": "APG", "icao": "KAPG", "name": "Phillips Army Air Field", "municipality": "Aberdeen", "country": "US", "type": "medium_airport", "lat": 39.4662, "lon": -76.1688}, {"iata": "API", "icao": "SKAP", "name": "Gomez Nino Apiay Air Base", "municipality": "Apiay", "country": "CO", "type": "medium_airport", "lat": 4.0761, "lon": -73.5627}, {"iata": "APJ", "icao": "ZUPL", "name": "Ali Pulan Airport", "municipality": "Burang Town", "country": "CN", "type": "medium_airport", "lat": 30.3979, "lon": 81.1332}, {"iata": "APL", "icao": "FQNP", "name": "Nampula Airport", "municipality": "Nampula", "country": "MZ", "type": "large_airport", "lat": -15.1056, "lon": 39.2818}, {"iata": "APN", "icao": "KAPN", "name": "Alpena County Regional Airport", "municipality": "Alpena", "country": "US", "type": "medium_airport", "lat": 45.0781, "lon": -83.5603}, {"iata": "APO", "icao": "SKLC", "name": "Antonio Roldán Betancur Airport", "municipality": "Carepa", "country": "CO", "type": "medium_airport", "lat": 7.812, "lon": -76.7164}, {"iata": "APW", "icao": "NSFA", "name": "Faleolo International Airport", "municipality": "Apia", "country": "WS", "type": "large_airport", "lat": -13.83, "lon": -172.008}, {"iata": "APZ", "icao": "SAHZ", "name": "Zapala Airport", "municipality": "Zapala", "country": "AR", "type": "medium_airport", "lat": -38.9755, "lon": -70.1136}, {"iata": "AQA", "icao": "SBAQ", "name": "Araraquara Airport", "municipality": "Araraquara", "country": "BR", "type": "medium_airport", "lat": -21.812, "lon": -48.133}, {"iata": "AQG", "icao": "ZSAQ", "name": "Anqing Tianzhushan Airport / Anqing North Air Base", "municipality": "Anqing", "country": "CN", "type": "medium_airport", "lat": 30.5822, "lon": 117.05}, {"iata": "AQI", "icao": "OEPA", "name": "Qaisumah–Hafar Al-Batin International Airport", "municipality": "Qaisumah", "country": "SA", "type": "large_airport", "lat": 28.3357, "lon": 46.1271}, {"iata": "AQJ", "icao": "OJAQ", "name": "King Hussein International Airport", "municipality": "Aqaba", "country": "JO", "type": "large_airport", "lat": 29.6116, "lon": 35.0181}, {"iata": "AQP", "icao": "SPQU", "name": "Rodríguez Ballón International Airport", "municipality": "Arequipa", "country": "PE", "type": "large_airport", "lat": -16.3408, "lon": -71.5695}, {"iata": "ARA", "icao": "KARA", "name": "Acadiana Regional Airport", "municipality": "New Iberia", "country": "US", "type": "medium_airport", "lat": 30.0378, "lon": -91.8839}, {"iata": "ARC", "icao": "PARC", "name": "Arctic Village Airport", "municipality": "Arctic Village", "country": "US", "type": "medium_airport", "lat": 68.1147, "lon": -145.579}, {"iata": "ARE", "icao": "TJAB", "name": "Antonio Nery Juarbe Pol Airport", "municipality": "Arecibo", "country": "PR", "type": "medium_airport", "lat": 18.4508, "lon": -66.6758}, {"iata": "ARH", "icao": "ULAA", "name": "Talagi Airport", "municipality": "Archangelsk", "country": "RU", "type": "medium_airport", "lat": 64.6003, "lon": 40.7167}, {"iata": "ARI", "icao": "SCAR", "name": "Chacalluta International Airport", "municipality": "Arica", "country": "CL", "type": "medium_airport", "lat": -18.3485, "lon": -70.3387}, {"iata": "ARK", "icao": "HTAR", "name": "Arusha Airport", "municipality": "Arusha", "country": "TZ", "type": "medium_airport", "lat": -3.3678, "lon": 36.6333}, {"iata": "ARM", "icao": "YARM", "name": "Armidale Airport", "municipality": "Armidale", "country": "AU", "type": "medium_airport", "lat": -30.5281, "lon": 151.617}, {"iata": "ARN", "icao": "ESSA", "name": "Stockholm-Arlanda Airport", "municipality": "Stockholm", "country": "SE", "type": "large_airport", "lat": 59.6485, "lon": 17.9288}, {"iata": "ART", "icao": "KART", "name": "Watertown International Airport", "municipality": "Watertown", "country": "US", "type": "medium_airport", "lat": 43.9919, "lon": -76.0217}, {"iata": "ARU", "icao": "SBAU", "name": "Araçatuba Airport", "municipality": "Araçatuba", "country": "BR", "type": "medium_airport", "lat": -21.1415, "lon": -50.4246}, {"iata": "ARW", "icao": "LRAR", "name": "Arad International Airport", "municipality": "Arad", "country": "RO", "type": "medium_airport", "lat": 46.1761, "lon": 21.2643}, {"iata": "ARX", "icao": "SBAC", "name": "Aracati Dragão do Mar Regional Airport", "municipality": "Aracati", "country": "BR", "type": "medium_airport", "lat": -4.5689, "lon": -37.8051}, {"iata": "ARY", "icao": "YARA", "name": "Ararat Airport", "municipality": "Ararat", "country": "AU", "type": "medium_airport", "lat": -37.31, "lon": 142.9887}, {"iata": "ASA", "icao": "HHSB", "name": "Assab International Airport", "municipality": "Assab", "country": "ER", "type": "medium_airport", "lat": 13.0718, "lon": 42.645}, {"iata": "ASB", "icao": "UTAA", "name": "Ashgabat International Airport", "municipality": "Ashgabat", "country": "TM", "type": "large_airport", "lat": 37.9868, "lon": 58.361}, {"iata": "ASD", "icao": "MYAF", "name": "Andros Town Airport", "municipality": "Andros Town", "country": "BS", "type": "medium_airport", "lat": 24.6979, "lon": -77.7956}, {"iata": "ASE", "icao": "KASE", "name": "Aspen-Pitkin County Airport (Sardy Field)", "municipality": "Aspen", "country": "US", "type": "medium_airport", "lat": 39.2232, "lon": -106.869}, {"iata": "ASF", "icao": "URWA", "name": "Astrakhan Narimanovo Boris M. Kustodiev International Airport", "municipality": "Astrakhan", "country": "RU", "type": "large_airport", "lat": 46.2828, "lon": 48.0105}, {"iata": "ASI", "icao": "FHAW", "name": "RAF Ascension Island", "municipality": "Cat Hill", "country": "SH", "type": "medium_airport", "lat": -7.9702, "lon": -14.3927}, {"iata": "ASJ", "icao": "RJKA", "name": "Amami Airport", "municipality": "Amami", "country": "JP", "type": "medium_airport", "lat": 28.4306, "lon": 129.713}, {"iata": "ASK", "icao": "DIYO", "name": "Yamoussoukro International Airport", "municipality": "Yamoussoukro", "country": "CI", "type": "large_airport", "lat": 6.9032, "lon": -5.3656}, {"iata": "ASM", "icao": "HHAS", "name": "Asmara International Airport", "municipality": "Asmara", "country": "ER", "type": "medium_airport", "lat": 15.2919, "lon": 38.9107}, {"iata": "ASO", "icao": "HASO", "name": "Asosa Airport", "municipality": "Asosa", "country": "ET", "type": "medium_airport", "lat": 10.0185, "lon": 34.5863}, {"iata": "ASP", "icao": "YBAS", "name": "Alice Springs Airport", "municipality": "Alice Springs", "country": "AU", "type": "medium_airport", "lat": -23.8066, "lon": 133.9034}, {"iata": "ASR", "icao": "LTAU", "name": "Kayseri Erkilet International Airport", "municipality": "Kayseri", "country": "TR", "type": "large_airport", "lat": 38.7704, "lon": 35.4954}, {"iata": "AST", "icao": "KAST", "name": "Astoria Regional Airport", "municipality": "Astoria", "country": "US", "type": "medium_airport", "lat": 46.158, "lon": -123.879}, {"iata": "ASU", "icao": "SGAS", "name": "Silvio Pettirossi International Airport", "municipality": "Asunción", "country": "PY", "type": "large_airport", "lat": -25.2402, "lon": -57.5192}, {"iata": "ASV", "icao": "HKAM", "name": "Amboseli Airport", "municipality": "Ol Tukai", "country": "KE", "type": "medium_airport", "lat": -2.6448, "lon": 37.2529}, {"iata": "ASW", "icao": "HESN", "name": "Aswan International Airport", "municipality": "Aswan", "country": "EG", "type": "large_airport", "lat": 23.9611, "lon": 32.8204}, {"iata": "ATA", "icao": "SPHZ", "name": "Comandante FAP German Arias Graziani Airport", "municipality": "Anta", "country": "PE", "type": "medium_airport", "lat": -9.3474, "lon": -77.5984}, {"iata": "ATC", "icao": "MYCA", "name": "Arthur's Town Airport", "municipality": "Arthur's Town", "country": "BS", "type": "medium_airport", "lat": 24.6294, "lon": -75.6738}, {"iata": "ATF", "icao": "SEAM", "name": "Chachoán Regional Airport", "municipality": "Ambato", "country": "EC", "type": "medium_airport", "lat": -1.2121, "lon": -78.5746}, {"iata": "ATG", "icao": "", "name": "Minhas Air Base", "municipality": "Kamra", "country": "PK", "type": "medium_airport", "lat": 33.8691, "lon": 72.4009}, {"iata": "ATH", "icao": "LGAV", "name": "Athens Eleftherios Venizelos International Airport", "municipality": "Spata-Artemida", "country": "GR", "type": "large_airport", "lat": 37.9364, "lon": 23.9445}, {"iata": "ATK", "icao": "PATQ", "name": "Atqasuk Edward Burnell Sr Memorial Airport", "municipality": "Atqasuk", "country": "US", "type": "medium_airport", "lat": 70.467, "lon": -157.436}, {"iata": "ATL", "icao": "KATL", "name": "Hartsfield Jackson Atlanta International Airport", "municipality": "Atlanta", "country": "US", "type": "large_airport", "lat": 33.6367, "lon": -84.4281}, {"iata": "ATM", "icao": "SBHT", "name": "Altamira Interstate Airport", "municipality": "Altamira", "country": "BR", "type": "medium_airport", "lat": -3.2531, "lon": -52.2539}, {"iata": "ATQ", "icao": "VIAR", "name": "Sri Guru Ram Das Ji International Airport", "municipality": "Amritsar", "country": "IN", "type": "large_airport", "lat": 31.7096, "lon": 74.7973}, {"iata": "ATR", "icao": "GQPA", "name": "Atar International Airport", "municipality": "Atar", "country": "MR", "type": "medium_airport", "lat": 20.5058, "lon": -13.0437}, {"iata": "ATW", "icao": "KATW", "name": "Appleton International Airport", "municipality": "Appleton", "country": "US", "type": "medium_airport", "lat": 44.2585, "lon": -88.519}, {"iata": "ATY", "icao": "KATY", "name": "Watertown Regional Airport", "municipality": "Watertown", "country": "US", "type": "medium_airport", "lat": 44.914, "lon": -97.1547}, {"iata": "ATZ", "icao": "HEAT", "name": "Asyut International Airport", "municipality": "Asyut", "country": "EG", "type": "large_airport", "lat": 27.046, "lon": 31.0128}, {"iata": "AUA", "icao": "TNCA", "name": "Queen Beatrix International Airport", "municipality": "Oranjestad", "country": "AW", "type": "large_airport", "lat": 12.5011, "lon": -70.0143}, {"iata": "AUC", "icao": "SKUC", "name": "Santiago Perez Airport", "municipality": "Arauca", "country": "CO", "type": "medium_airport", "lat": 7.0689, "lon": -70.7369}, {"iata": "AUF", "icao": "LFLA", "name": "Auxerre Branches airport", "municipality": "Auxerre", "country": "FR", "type": "medium_airport", "lat": 47.8502, "lon": 3.4971}, {"iata": "AUG", "icao": "KAUG", "name": "Augusta State Airport", "municipality": "Augusta", "country": "US", "type": "medium_airport", "lat": 44.3206, "lon": -69.7973}, {"iata": "AUH", "icao": "OMAA", "name": "Zayed International Airport", "municipality": "Abu Dhabi", "country": "AE", "type": "large_airport", "lat": 24.441, "lon": 54.6492}, {"iata": "AUQ", "icao": "NTMN", "name": "Hiva Oa-Atuona Airport", "municipality": "Hiva Oa Island", "country": "PF", "type": "medium_airport", "lat": -9.7688, "lon": -139.011}, {"iata": "AUR", "icao": "LFLW", "name": "Aurillac airport", "municipality": "Aurillac", "country": "FR", "type": "medium_airport", "lat": 44.8914, "lon": 2.4219}, {"iata": "AUS", "icao": "KAUS", "name": "Austin Bergstrom International Airport", "municipality": "Austin", "country": "US", "type": "large_airport", "lat": 30.1975, "lon": -97.662}, {"iata": "AUW", "icao": "KAUW", "name": "Wausau Downtown Airport", "municipality": "Wausau", "country": "US", "type": "medium_airport", "lat": 44.9262, "lon": -89.6266}, {"iata": "AUX", "icao": "SWGN", "name": "Araguaína Airport", "municipality": "Araguaína", "country": "BR", "type": "medium_airport", "lat": -7.2279, "lon": -48.2405}, {"iata": "AVA", "icao": "ZUAS", "name": "Anshun Huangguoshu Airport", "municipality": "Anshun (Xixiu)", "country": "CN", "type": "medium_airport", "lat": 26.2606, "lon": 105.8733}, {"iata": "AVB", "icao": "LIPA", "name": "Aviano Air Base", "municipality": "Aviano (PN)", "country": "IT", "type": "medium_airport", "lat": 46.0319, "lon": 12.5965}, {"iata": "AVI", "icao": "MUCA", "name": "Máximo Gómez Airport", "municipality": "Ciro Redondo", "country": "CU", "type": "medium_airport", "lat": 22.0271, "lon": -78.7896}, {"iata": "AVK", "icao": "ZMAH", "name": "Arvaikheer Airport", "municipality": "Arvaikheer", "country": "MN", "type": "medium_airport", "lat": 46.2503, "lon": 102.802}, {"iata": "AVL", "icao": "KAVL", "name": "Asheville Regional Airport", "municipality": "Asheville", "country": "US", "type": "medium_airport", "lat": 35.4355, "lon": -82.5419}, {"iata": "AVN", "icao": "LFMV", "name": "Avignon Caumont airport", "municipality": "Avignon", "country": "FR", "type": "medium_airport", "lat": 43.9073, "lon": 4.9018}, {"iata": "AVP", "icao": "KAVP", "name": "Wilkes-Barre/Scranton International Airport", "municipality": "Wilkes-Barre/Scranton", "country": "US", "type": "medium_airport", "lat": 41.3371, "lon": -75.7242}, {"iata": "AVV", "icao": "YMAV", "name": "Melbourne Avalon International Airport", "municipality": "Geelong/Melbourne", "country": "AU", "type": "large_airport", "lat": -38.0403, "lon": 144.4672}, {"iata": "AWA", "icao": "HALA", "name": "Hawassa International Airport", "municipality": "Hawassa", "country": "ET", "type": "large_airport", "lat": 7.1006, "lon": 38.3965}, {"iata": "AWK", "icao": "PWAK", "name": "Wake Island Airfield", "municipality": "Wake Island", "country": "UM", "type": "medium_airport", "lat": 19.2824, "lon": 166.6366}, {"iata": "AWZ", "icao": "OIAW", "name": "Qasem Soleimani International Airport", "municipality": "Ahvaz", "country": "IR", "type": "large_airport", "lat": 31.3364, "lon": 48.7638}, {"iata": "AXA", "icao": "TQPF", "name": "Clayton J. Lloyd International Airport", "municipality": "The Valley", "country": "AI", "type": "medium_airport", "lat": 18.2048, "lon": -63.0538}, {"iata": "AXD", "icao": "LGAL", "name": "Alexandroupoli Democritus Airport", "municipality": "Alexandroupolis", "country": "GR", "type": "medium_airport", "lat": 40.8559, "lon": 25.9563}, {"iata": "AXF", "icao": "ZBAL", "name": "Alxa Left Banner Bayanhot Airport", "municipality": "Bayanhot", "country": "CN", "type": "medium_airport", "lat": 38.7483, "lon": 105.5842}, {"iata": "AXJ", "icao": "RJDA", "name": "Amakusa Airport", "municipality": "Amakusa", "country": "JP", "type": "medium_airport", "lat": 32.4825, "lon": 130.159}, {"iata": "AXK", "icao": "OYAT", "name": "Ataq Airport", "municipality": "Ataq", "country": "YE", "type": "medium_airport", "lat": 14.5513, "lon": 46.8262}, {"iata": "AXM", "icao": "SKAR", "name": "El Eden Airport", "municipality": "Armenia", "country": "CO", "type": "medium_airport", "lat": 4.4528, "lon": -75.7664}, {"iata": "AXN", "icao": "KAXN", "name": "Chandler Field", "municipality": "Alexandria", "country": "US", "type": "medium_airport", "lat": 45.8663, "lon": -95.3947}, {"iata": "AXP", "icao": "MYAP", "name": "Spring Point Airport", "municipality": "Spring Point", "country": "BS", "type": "medium_airport", "lat": 22.4418, "lon": -73.9709}, {"iata": "AXR", "icao": "NTGU", "name": "Arutua Airport", "municipality": "", "country": "PF", "type": "medium_airport", "lat": -15.2483, "lon": -146.617}, {"iata": "AXT", "icao": "RJSK", "name": "Akita Airport", "municipality": "Akita", "country": "JP", "type": "medium_airport", "lat": 39.6156, "lon": 140.219}, {"iata": "AXU", "icao": "HAAX", "name": "Axum Airport", "municipality": "Axum", "country": "ET", "type": "medium_airport", "lat": 14.1468, "lon": 38.7728}, {"iata": "AYJ", "icao": "VEAY", "name": "Maharshi Valmiki International Airport", "municipality": "Faizabad", "country": "IN", "type": "medium_airport", "lat": 26.7477, "lon": 82.1637}, {"iata": "AYO", "icao": "SGAY", "name": "Aeropuerto Nacional Juan de Ayolas", "municipality": "Ayolas", "country": "PY", "type": "medium_airport", "lat": -27.3784, "lon": -56.8568}, {"iata": "AYP", "icao": "SPHO", "name": "Air Force Colonel Alfredo Mendivil Duarte Airport", "municipality": "Ayacucho", "country": "PE", "type": "medium_airport", "lat": -13.1548, "lon": -74.2044}, {"iata": "AYQ", "icao": "YAYE", "name": "Ayers Rock Connellan Airport", "municipality": "Yulara", "country": "AU", "type": "medium_airport", "lat": -25.1859, "lon": 130.977}, {"iata": "AYT", "icao": "LTAI", "name": "Antalya International Airport", "municipality": "Antalya", "country": "TR", "type": "large_airport", "lat": 36.8987, "lon": 30.8005}, {"iata": "AYX", "icao": "SPAY", "name": "Teniente General Gerardo Pérez Pinedo Airport", "municipality": "Atalaya", "country": "PE", "type": "medium_airport", "lat": -10.7291, "lon": -73.7665}, {"iata": "AZA", "icao": "KIWA", "name": "Mesa Gateway Airport", "municipality": "Mesa", "country": "US", "type": "medium_airport", "lat": 33.3078, "lon": -111.655}, {"iata": "AZD", "icao": "OIYY", "name": "Shahid Sadooghi Airport", "municipality": "Yazd", "country": "IR", "type": "medium_airport", "lat": 31.9049, "lon": 54.2765}, {"iata": "AZI", "icao": "OMAD", "name": "Al Bateen Executive Airport", "municipality": "Abu Dhabi", "country": "AE", "type": "large_airport", "lat": 24.4271, "lon": 54.4599}, {"iata": "AZN", "icao": "UZFA", "name": "Andijan International Airport", "municipality": "Andijan", "country": "UZ", "type": "medium_airport", "lat": 40.7277, "lon": 72.294}, {"iata": "AZO", "icao": "KAZO", "name": "Kalamazoo/Battle Creek International Airport", "municipality": "Kalamazoo", "country": "US", "type": "medium_airport", "lat": 42.2321, "lon": -85.5496}, {"iata": "AZR", "icao": "DAUA", "name": "Touat-Cheikh Sidi Mohamed Belkebir Airport", "municipality": "Adrar", "country": "DZ", "type": "medium_airport", "lat": 27.8376, "lon": -0.1864}, {"iata": "AZS", "icao": "MDCY", "name": "Samaná El Catey International Airport", "municipality": "Samana", "country": "DO", "type": "medium_airport", "lat": 19.2693, "lon": -69.7374}, {"iata": "BAB", "icao": "KBAB", "name": "Beale Air Force Base", "municipality": "Beale Air Force Base", "country": "US", "type": "medium_airport", "lat": 39.1361, "lon": -121.437}, {"iata": "BAD", "icao": "KBAD", "name": "Barksdale Air Force Base", "municipality": "Bossier City", "country": "US", "type": "medium_airport", "lat": 32.5018, "lon": -93.6627}, {"iata": "BAF", "icao": "KBAF", "name": "Westfield-Barnes Regional Airport", "municipality": "Westfield", "country": "US", "type": "medium_airport", "lat": 42.1578, "lon": -72.7156}, {"iata": "BAG", "icao": "RPUB", "name": "Loakan Airport", "municipality": "Baguio", "country": "PH", "type": "medium_airport", "lat": 16.375, "lon": 120.6199}, {"iata": "BAH", "icao": "OBBI", "name": "Bahrain International Airport", "municipality": "Manama", "country": "BH", "type": "large_airport", "lat": 26.2673, "lon": 50.6376}, {"iata": "BAI", "icao": "MRBA", "name": "Buenos Aires Airport", "municipality": "Punta Arenas", "country": "CR", "type": "medium_airport", "lat": 9.1639, "lon": -83.3302}, {"iata": "BAL", "icao": "LTCJ", "name": "Batman Airport", "municipality": "Batman", "country": "TR", "type": "medium_airport", "lat": 37.929, "lon": 41.1166}, {"iata": "BAQ", "icao": "SKBQ", "name": "Ernesto Cortissoz International Airport", "municipality": "Barranquilla", "country": "CO", "type": "large_airport", "lat": 10.8896, "lon": -74.7808}, {"iata": "BAR", "icao": "ZJQH", "name": "Qionghai Bo'ao Airport", "municipality": "Qionghai (Basuo)", "country": "CN", "type": "medium_airport", "lat": 19.141, "lon": 110.4528}, {"iata": "BAT", "icao": "", "name": "Chafei Amsei Airport", "municipality": "Barretos", "country": "BR", "type": "medium_airport", "lat": -20.5846, "lon": -48.5941}, {"iata": "BAV", "icao": "ZBOW", "name": "Baotou Donghe International Airport", "municipality": "Baotou", "country": "CN", "type": "large_airport", "lat": 40.56, "lon": 109.997}, {"iata": "BAX", "icao": "UNBB", "name": "Barnaul Gherman Titov International Airport", "municipality": "Barnaul", "country": "RU", "type": "large_airport", "lat": 53.3613, "lon": 83.5397}, {"iata": "BAY", "icao": "LRBM", "name": "Maramureș International Airport", "municipality": "Tăuții-Măgherăuș", "country": "RO", "type": "medium_airport", "lat": 47.6584, "lon": 23.4644}, {"iata": "BBA", "icao": "SCBA", "name": "Balmaceda Airport", "municipality": "Balmaceda", "country": "CL", "type": "medium_airport", "lat": -45.916, "lon": -71.6895}, {"iata": "BBD", "icao": "KBBD", "name": "Curtis Field", "municipality": "Brady", "country": "US", "type": "medium_airport", "lat": 31.1789, "lon": -99.3247}, {"iata": "BBI", "icao": "VEBS", "name": "Biju Patnaik International Airport", "municipality": "Bhubaneswar", "country": "IN", "type": "large_airport", "lat": 20.251, "lon": 85.8147}, {"iata": "BBK", "icao": "FBKE", "name": "Kasane International Airport", "municipality": "Kasane", "country": "BW", "type": "large_airport", "lat": -17.8317, "lon": 25.1662}, {"iata": "BBM", "icao": "VDBG", "name": "Battambang Airport", "municipality": "Battambang", "country": "KH", "type": "medium_airport", "lat": 13.0956, "lon": 103.224}, {"iata": "BBN", "icao": "WBGZ", "name": "Bario Airport", "municipality": "Bario", "country": "MY", "type": "medium_airport", "lat": 3.7346, "lon": 115.4785}, {"iata": "BBO", "icao": "HCMI", "name": "Berbera Airport", "municipality": "Berbera", "country": "SO", "type": "medium_airport", "lat": 10.385, "lon": 44.9367}, {"iata": "BBQ", "icao": "TAPB", "name": "Burton-Nibbs International Airport", "municipality": "Codrington", "country": "AG", "type": "medium_airport", "lat": 17.6212, "lon": -61.7983}, {"iata": "BBS", "icao": "EGLK", "name": "Blackbushe Airport", "municipality": "Camberley, Surrey", "country": "GB", "type": "medium_airport", "lat": 51.3239, "lon": -0.8475}, {"iata": "BBT", "icao": "FEFT", "name": "Berbérati Airport", "municipality": "Berbérati", "country": "CF", "type": "medium_airport", "lat": 4.2216, "lon": 15.7864}, {"iata": "BBU", "icao": "LRBS", "name": "Bucharest Băneasa Aurel Vlaicu International Airport", "municipality": "Bucharest", "country": "RO", "type": "large_airport", "lat": 44.5031, "lon": 26.1029}, {"iata": "BCA", "icao": "MUBA", "name": "Gustavo Rizo Airport", "municipality": "Baracoa", "country": "CU", "type": "medium_airport", "lat": 20.3653, "lon": -74.5062}, {"iata": "BCD", "icao": "RPVB", "name": "Bacolod-Silay International Airport", "municipality": "Bacolod City", "country": "PH", "type": "large_airport", "lat": 10.7762, "lon": 123.0189}, {"iata": "BCE", "icao": "KBCE", "name": "Bryce Canyon Airport", "municipality": "Bryce Canyon", "country": "US", "type": "medium_airport", "lat": 37.7064, "lon": -112.145}, {"iata": "BCH", "icao": "WPEC", "name": "Baucau Airport", "municipality": "Baucau", "country": "TL", "type": "medium_airport", "lat": -8.4865, "lon": 126.4}, {"iata": "BCI", "icao": "YBAR", "name": "Barcaldine Airport", "municipality": "Barcaldine", "country": "AU", "type": "medium_airport", "lat": -23.5663, "lon": 145.3021}, {"iata": "BCL", "icao": "MRBC", "name": "Barra del Colorado Airport", "municipality": "Pococi", "country": "CR", "type": "medium_airport", "lat": 10.7687, "lon": -83.5856}, {"iata": "BCM", "icao": "LRBC", "name": "Bacău George Enescu International  Airport", "municipality": "Bacău", "country": "RO", "type": "large_airport", "lat": 46.5219, "lon": 26.9103}, {"iata": "BCN", "icao": "LEBL", "name": "Josep Tarradellas Barcelona-El Prat Airport", "municipality": "Barcelona", "country": "ES", "type": "large_airport", "lat": 41.2971, "lon": 2.0785}, {"iata": "BCO", "icao": "HABC", "name": "Jinka Airport", "municipality": "Jinka", "country": "ET", "type": "medium_airport", "lat": 5.7497, "lon": 36.5602}, {"iata": "BCQ", "icao": "", "name": "Brak Airport", "municipality": "Brak", "country": "LY", "type": "medium_airport", "lat": 27.653, "lon": 14.272}, {"iata": "BCT", "icao": "KBCT", "name": "Boca Raton Airport", "municipality": "Boca Raton", "country": "US", "type": "medium_airport", "lat": 26.3785, "lon": -80.1077}, {"iata": "BCU", "icao": "DNBC", "name": "Sir Abubakar Tafawa Balewa Bauchi State International Airport", "municipality": "Bauchi", "country": "NG", "type": "large_airport", "lat": 10.4828, "lon": 9.744}, {"iata": "BCW", "icao": "", "name": "Benguera Island Airport", "municipality": "Benguera Island", "country": "MZ", "type": "medium_airport", "lat": -21.8533, "lon": 35.4383}, {"iata": "BDA", "icao": "TXKF", "name": "L.F. Wade International Airport", "municipality": "Hamilton", "country": "BM", "type": "large_airport", "lat": 32.3638, "lon": -64.6782}, {"iata": "BDB", "icao": "YBUD", "name": "Bundaberg Airport", "municipality": "Bundaberg", "country": "AU", "type": "medium_airport", "lat": -24.905, "lon": 152.3226}, {"iata": "BDE", "icao": "KBDE", "name": "Baudette International Airport", "municipality": "Baudette", "country": "US", "type": "medium_airport", "lat": 48.7284, "lon": -94.6122}, {"iata": "BDH", "icao": "OIBL", "name": "Bandar Lengeh International Airport", "municipality": "Bandar Lengeh", "country": "IR", "type": "medium_airport", "lat": 26.5323, "lon": 54.8248}, {"iata": "BDJ", "icao": "WAOO", "name": "Syamsudin Noor International Airport", "municipality": "Banjarbaru", "country": "ID", "type": "large_airport", "lat": -3.4401, "lon": 114.7612}, {"iata": "BDL", "icao": "KBDL", "name": "Bradley International Airport", "municipality": "Hartford", "country": "US", "type": "large_airport", "lat": 41.9386, "lon": -72.688}, {"iata": "BDM", "icao": "LTBG", "name": "Bandırma Airport", "municipality": "Bandırma", "country": "TR", "type": "medium_airport", "lat": 40.318, "lon": 27.9777}, {"iata": "BDO", "icao": "WICC", "name": "Husein Sastranegara International Airport", "municipality": "Bandung", "country": "ID", "type": "medium_airport", "lat": -6.9006, "lon": 107.576}, {"iata": "BDQ", "icao": "VABO", "name": "Vadodara International Airport", "municipality": "Vadodara", "country": "IN", "type": "large_airport", "lat": 22.3362, "lon": 73.2263}, {"iata": "BDR", "icao": "KBDR", "name": "Igor I Sikorsky Memorial Airport", "municipality": "Bridgeport", "country": "US", "type": "medium_airport", "lat": 41.1635, "lon": -73.1262}, {"iata": "BDS", "icao": "LIBR", "name": "Brindisi Airport", "municipality": "Brindisi", "country": "IT", "type": "large_airport", "lat": 40.6576, "lon": 17.947}, {"iata": "BDT", "icao": "FZFD", "name": "Gbadolite Airport", "municipality": "Gbadolite", "country": "CD", "type": "medium_airport", "lat": 4.2527, "lon": 20.9753}, {"iata": "BDU", "icao": "ENDU", "name": "Bardufoss Airport", "municipality": "Målselv", "country": "NO", "type": "medium_airport", "lat": 69.0558, "lon": 18.5404}, {"iata": "BEB", "icao": "EGPL", "name": "Benbecula Airport", "municipality": "Balivanich", "country": "GB", "type": "medium_airport", "lat": 57.4811, "lon": -7.3628}, {"iata": "BED", "icao": "KBED", "name": "Laurence G Hanscom Field", "municipality": "Bedford", "country": "US", "type": "medium_airport", "lat": 42.47, "lon": -71.289}, {"iata": "BEF", "icao": "MNBL", "name": "Bluefields Airport", "municipality": "Bluefields", "country": "NI", "type": "medium_airport", "lat": 11.991, "lon": -83.7741}, {"iata": "BEG", "icao": "LYBE", "name": "Belgrade Nikola Tesla Airport", "municipality": "Belgrade", "country": "RS", "type": "large_airport", "lat": 44.8184, "lon": 20.3091}, {"iata": "BEJ", "icao": "WAQT", "name": "Kalimarau Airport", "municipality": "Tanjung Redeb - Borneo Island", "country": "ID", "type": "medium_airport", "lat": 2.1478, "lon": 117.4307}, {"iata": "BEK", "icao": "VIBY", "name": "Bareilly Air Force Station", "municipality": "Bareilly", "country": "IN", "type": "medium_airport", "lat": 28.4221, "lon": 79.4508}, {"iata": "BEL", "icao": "SBBE", "name": "Val de Cans/Júlio Cezar Ribeiro International Airport", "municipality": "Belém", "country": "BR", "type": "large_airport", "lat": -1.3793, "lon": -48.4762}, {"iata": "BEM", "icao": "GMMD", "name": "Beni Mellal Airport", "municipality": "Oulad Yaich", "country": "MA", "type": "large_airport", "lat": 32.4019, "lon": -6.3159}, {"iata": "BEN", "icao": "HLLB", "name": "Benina International Airport", "municipality": "Benina", "country": "LY", "type": "large_airport", "lat": 32.0968, "lon": 20.2695}, {"iata": "BEP", "icao": "VOBI", "name": "Bellary Airport", "municipality": "Bellary", "country": "IN", "type": "medium_airport", "lat": 15.1628, "lon": 76.8828}, {"iata": "BEQ", "icao": "EGXH", "name": "RAF Honington", "municipality": "Bury Saint Edmunds, Suffolk", "country": "GB", "type": "medium_airport", "lat": 52.3426, "lon": 0.7729}, {"iata": "BER", "icao": "EDDB", "name": "Berlin Brandenburg Airport", "municipality": "Berlin", "country": "DE", "type": "large_airport", "lat": 52.3617, "lon": 13.5023}, {"iata": "BES", "icao": "LFRB", "name": "Brest Bretagne airport", "municipality": "Brest", "country": "FR", "type": "large_airport", "lat": 48.4479, "lon": -4.4185}, {"iata": "BET", "icao": "PABE", "name": "Bethel Airport", "municipality": "Bethel", "country": "US", "type": "medium_airport", "lat": 60.7798, "lon": -161.838}, {"iata": "BEU", "icao": "YBIE", "name": "Bedourie Airport", "municipality": "Bedourie", "country": "AU", "type": "medium_airport", "lat": -24.3461, "lon": 139.46}, {"iata": "BEW", "icao": "FQBR", "name": "Beira International Airport", "municipality": "Beira", "country": "MZ", "type": "large_airport", "lat": -19.7964, "lon": 34.9076}, {"iata": "BEX", "icao": "EGUB", "name": "RAF Benson", "municipality": "Wallingford, Oxfordshire", "country": "GB", "type": "medium_airport", "lat": 51.6144, "lon": -1.096}, {"iata": "BEY", "icao": "OLBA", "name": "Beirut Rafic Hariri International Airport", "municipality": "Beirut", "country": "LB", "type": "large_airport", "lat": 33.8198, "lon": 35.4874}, {"iata": "BFD", "icao": "KBFD", "name": "Bradford Regional Airport", "municipality": "Bradford", "country": "US", "type": "medium_airport", "lat": 41.8031, "lon": -78.6401}, {"iata": "BFE", "icao": "EDLI", "name": "Bielefeld Airport", "municipality": "Bielefeld", "country": "DE", "type": "medium_airport", "lat": 51.9647, "lon": 8.5444}, {"iata": "BFF", "icao": "KBFF", "name": "Western Neb. Rgnl/William B. Heilig Airport", "municipality": "Scottsbluff", "country": "US", "type": "medium_airport", "lat": 41.874, "lon": -103.596}, {"iata": "BFH", "icao": "SBBI", "name": "Bacacheri Airport", "municipality": "Curitiba", "country": "BR", "type": "medium_airport", "lat": -25.4051, "lon": -49.232}, {"iata": "BFI", "icao": "KBFI", "name": "King County International Airport - Boeing Field", "municipality": "Seattle", "country": "US", "type": "medium_airport", "lat": 47.527, "lon": -122.2999}, {"iata": "BFJ", "icao": "ZUBJ", "name": "Bijie Feixiong Airport", "municipality": "Bijie", "country": "CN", "type": "medium_airport", "lat": 27.2671, "lon": 105.4721}, {"iata": "BFK", "icao": "KBKF", "name": "Buckley Space Force Base", "municipality": "Aurora", "country": "US", "type": "medium_airport", "lat": 39.7017, "lon": -104.752}, {"iata": "BFL", "icao": "KBFL", "name": "Meadows Field", "municipality": "Bakersfield", "country": "US", "type": "medium_airport", "lat": 35.4336, "lon": -119.057}, {"iata": "BFM", "icao": "KBFM", "name": "Mobile Downtown Airport", "municipality": "Mobile", "country": "US", "type": "medium_airport", "lat": 30.6268, "lon": -88.0681}, {"iata": "BFN", "icao": "FABL", "name": "Bram Fischer International Airport", "municipality": "Bloemfontein", "country": "ZA", "type": "large_airport", "lat": -29.0927, "lon": 26.3024}, {"iata": "BFO", "icao": "FVCZ", "name": "Buffalo Range Airport", "municipality": "Chiredzi", "country": "ZW", "type": "medium_airport", "lat": -21.0081, "lon": 31.5786}, {"iata": "BFP", "icao": "KBVI", "name": "Beaver County Airport", "municipality": "Beaver Falls", "country": "US", "type": "medium_airport", "lat": 40.7725, "lon": -80.3914}, {"iata": "BFS", "icao": "EGAA", "name": "Belfast International Airport", "municipality": "Belfast", "country": "GB", "type": "large_airport", "lat": 54.6575, "lon": -6.2158}, {"iata": "BFU", "icao": "ZSBB", "name": "Bengbu Renheji Airport", "municipality": "Bengbu", "country": "CN", "type": "medium_airport", "lat": 32.8477, "lon": 117.3202}, {"iata": "BFV", "icao": "VTUO", "name": "Buri Ram Airport", "municipality": "Buriram", "country": "TH", "type": "medium_airport", "lat": 15.2295, "lon": 103.253}, {"iata": "BFX", "icao": "FKKU", "name": "Bafoussam Airport", "municipality": "Bafoussam", "country": "CM", "type": "medium_airport", "lat": 5.5369, "lon": 10.3546}, {"iata": "BFY", "icao": "ZSBA", "name": "Bengbu Tenghu Airport", "municipality": "Bengbu", "country": "CN", "type": "medium_airport", "lat": 33.1663, "lon": 117.0583}, {"iata": "BGA", "icao": "SKBG", "name": "Palonegro Airport", "municipality": "Bucaramanga", "country": "CO", "type": "medium_airport", "lat": 7.1265, "lon": -73.1848}, {"iata": "BGC", "icao": "LPBG", "name": "Bragança Airport", "municipality": "Bragança", "country": "PT", "type": "medium_airport", "lat": 41.8578, "lon": -6.7071}, {"iata": "BGF", "icao": "FEFF", "name": "Bangui M'Poko International Airport", "municipality": "Bangui", "country": "CF", "type": "large_airport", "lat": 4.3985, "lon": 18.5188}, {"iata": "BGI", "icao": "TBPB", "name": "Grantley Adams International Airport", "municipality": "Bridgetown", "country": "BB", "type": "large_airport", "lat": 13.0747, "lon": -59.491}, {"iata": "BGM", "icao": "KBGM", "name": "Greater Binghamton/Edwin A Link field", "municipality": "Binghamton", "country": "US", "type": "medium_airport", "lat": 42.2087, "lon": -75.9798}, {"iata": "BGN", "icao": "UESG", "name": "Belaya Gora Airport", "municipality": "Belaya Gora", "country": "RU", "type": "medium_airport", "lat": 68.5562, "lon": 146.2278}, {"iata": "BGO", "icao": "ENBR", "name": "Bergen Airport, Flesland", "municipality": "Bergen", "country": "NO", "type": "large_airport", "lat": 60.2934, "lon": 5.2181}, {"iata": "BGR", "icao": "KBGR", "name": "Bangor International Airport", "municipality": "Bangor", "country": "US", "type": "medium_airport", "lat": 44.8064, "lon": -68.8267}, {"iata": "BGW", "icao": "ORBI", "name": "Baghdad International Airport / New Al Muthana Air Base", "municipality": "Baghdad", "country": "IQ", "type": "large_airport", "lat": 33.2625, "lon": 44.2346}, {"iata": "BGX", "icao": "SBBG", "name": "Comandante Gustavo Kraemer Airport", "municipality": "Bagé", "country": "BR", "type": "medium_airport", "lat": -31.3905, "lon": -54.1122}, {"iata": "BGY", "icao": "LIME", "name": "Il Caravaggio International Airport", "municipality": "Orio al Serio (BG)", "country": "IT", "type": "large_airport", "lat": 45.6694, "lon": 9.7089}, {"iata": "BHB", "icao": "KBHB", "name": "Hancock County-Bar Harbor Airport", "municipality": "Bar Harbor", "country": "US", "type": "medium_airport", "lat": 44.45, "lon": -68.3615}, {"iata": "BHD", "icao": "EGAC", "name": "George Best Belfast City Airport", "municipality": "Belfast", "country": "GB", "type": "medium_airport", "lat": 54.6181, "lon": -5.8725}, {"iata": "BHE", "icao": "NZWB", "name": "Woodbourne Airport", "municipality": "Blenheim", "country": "NZ", "type": "medium_airport", "lat": -41.5183, "lon": 173.87}, {"iata": "BHH", "icao": "OEBH", "name": "Bisha Airport", "municipality": "Bisha", "country": "SA", "type": "medium_airport", "lat": 19.9844, "lon": 42.6209}, {"iata": "BHI", "icao": "SAZB", "name": "Comandante Espora Airport", "municipality": "Bahía Blanca", "country": "AR", "type": "medium_airport", "lat": -38.725, "lon": -62.1693}, {"iata": "BHJ", "icao": "VABJ", "name": "Bhuj Airport", "municipality": "Bhuj", "country": "IN", "type": "medium_airport", "lat": 23.2878, "lon": 69.6702}, {"iata": "BHK", "icao": "UZSB", "name": "Bukhara International Airport", "municipality": "Bukhara", "country": "UZ", "type": "large_airport", "lat": 39.7753, "lon": 64.4823}, {"iata": "BHM", "icao": "KBHM", "name": "Birmingham-Shuttlesworth International Airport", "municipality": "Birmingham", "country": "US", "type": "large_airport", "lat": 33.5629, "lon": -86.7507}, {"iata": "BHO", "icao": "VABP", "name": "Raja Bhoj International Airport", "municipality": "Bhopal", "country": "IN", "type": "large_airport", "lat": 23.2875, "lon": 77.3374}, {"iata": "BHQ", "icao": "YBHI", "name": "Broken Hill Airport", "municipality": "Broken Hill", "country": "AU", "type": "medium_airport", "lat": -32.0014, "lon": 141.472}, {"iata": "BHS", "icao": "YBTH", "name": "Bathurst Airport", "municipality": "Bathurst", "country": "AU", "type": "medium_airport", "lat": -33.4068, "lon": 149.6512}, {"iata": "BHU", "icao": "VABV", "name": "Bhavnagar Airport", "municipality": "Bhavnagar", "country": "IN", "type": "medium_airport", "lat": 21.7522, "lon": 72.1852}, {"iata": "BHV", "icao": "OPBW", "name": "Bahawalpur Airport", "municipality": "Bahawalpur", "country": "PK", "type": "medium_airport", "lat": 29.3481, "lon": 71.718}, {"iata": "BHX", "icao": "EGBB", "name": "Birmingham Airport", "municipality": "Birmingham, West Midlands", "country": "GB", "type": "large_airport", "lat": 52.4539, "lon": -1.748}, {"iata": "BHY", "icao": "ZGBH", "name": "Beihai Fucheng Airport", "municipality": "Beihai", "country": "CN", "type": "medium_airport", "lat": 21.5387, "lon": 109.2937}, {"iata": "BIA", "icao": "LFKB", "name": "Bastia-Poretta International airport", "municipality": "Bastia", "country": "FR", "type": "large_airport", "lat": 42.5527, "lon": 9.4837}, {"iata": "BIF", "icao": "KBIF", "name": "Biggs Army Air Field (Fort Bliss)", "municipality": "Fort Bliss/El Paso", "country": "US", "type": "medium_airport", "lat": 31.8495, "lon": -106.38}, {"iata": "BIG", "icao": "PABI", "name": "Allen Army Airfield", "municipality": "Delta Junction Ft Greely", "country": "US", "type": "medium_airport", "lat": 63.9945, "lon": -145.722}, {"iata": "BIH", "icao": "KBIH", "name": "Eastern Sierra Regional Airport", "municipality": "Bishop", "country": "US", "type": "medium_airport", "lat": 37.3731, "lon": -118.364}, {"iata": "BIK", "icao": "WABB", "name": "Frans Kaisiepo Airport", "municipality": "Biak", "country": "ID", "type": "medium_airport", "lat": -1.19, "lon": 136.108}, {"iata": "BIL", "icao": "KBIL", "name": "Billings Logan International Airport", "municipality": "Billings", "country": "US", "type": "medium_airport", "lat": 45.8089, "lon": -108.5412}, {"iata": "BIM", "icao": "MYBS", "name": "South Bimini Airport", "municipality": "South Bimini", "country": "BS", "type": "medium_airport", "lat": 25.6999, "lon": -79.2647}, {"iata": "BIO", "icao": "LEBB", "name": "Bilbao Airport", "municipality": "Bilbao", "country": "ES", "type": "large_airport", "lat": 43.3011, "lon": -2.9106}, {"iata": "BIQ", "icao": "LFBZ", "name": "Biarritz Pays Basque airport", "municipality": "Biarritz", "country": "FR", "type": "medium_airport", "lat": 43.4684, "lon": -1.5232}, {"iata": "BIR", "icao": "VNVT", "name": "Biratnagar Airport", "municipality": "Biratnagar", "country": "NP", "type": "medium_airport", "lat": 26.4815, "lon": 87.264}, {"iata": "BIS", "icao": "KBIS", "name": "Bismarck Municipal Airport", "municipality": "Bismarck", "country": "US", "type": "medium_airport", "lat": 46.7727, "lon": -100.7469}, {"iata": "BIU", "icao": "BIBD", "name": "Bildudalur Airport", "municipality": "Bildudalur", "country": "IS", "type": "medium_airport", "lat": 65.6413, "lon": -23.5462}, {"iata": "BIX", "icao": "KBIX", "name": "Keesler Air Force Base", "municipality": "Biloxi", "country": "US", "type": "medium_airport", "lat": 30.4104, "lon": -88.9244}, {"iata": "BIY", "icao": "FABE", "name": "Bisho Airport", "municipality": "Bisho", "country": "ZA", "type": "medium_airport", "lat": -32.8971, "lon": 27.2791}, {"iata": "BJA", "icao": "DAAE", "name": "Soummam–Abane Ramdane Airport", "municipality": "Béjaïa", "country": "DZ", "type": "large_airport", "lat": 36.7125, "lon": 5.0699}, {"iata": "BJB", "icao": "OIMN", "name": "Bojnord Airport", "municipality": "Bojnord", "country": "IR", "type": "medium_airport", "lat": 37.493, "lon": 57.3082}, {"iata": "BJC", "icao": "KBJC", "name": "Rocky Mountain Metropolitan Airport", "municipality": "Denver", "country": "US", "type": "medium_airport", "lat": 39.9088, "lon": -105.117}, {"iata": "BJF", "icao": "ENBS", "name": "Båtsfjord Airport", "municipality": "Båtsfjord", "country": "NO", "type": "medium_airport", "lat": 70.6003, "lon": 29.6926}, {"iata": "BJI", "icao": "KBJI", "name": "Bemidji Regional Airport", "municipality": "Bemidji", "country": "US", "type": "medium_airport", "lat": 47.5094, "lon": -94.9337}, {"iata": "BJL", "icao": "GBYD", "name": "Banjul International Airport", "municipality": "Banjul (Yundum)", "country": "GM", "type": "large_airport", "lat": 13.338, "lon": -16.6522}, {"iata": "BJM", "icao": "HBBA", "name": "Bujumbura Melchior Ndadaye International Airport", "municipality": "Bujumbura", "country": "BI", "type": "large_airport", "lat": -3.324, "lon": 29.3185}, {"iata": "BJO", "icao": "SLBJ", "name": "Bermejo Airport", "municipality": "Bermejo", "country": "BO", "type": "medium_airport", "lat": -22.7733, "lon": -64.3129}, {"iata": "BJR", "icao": "HABD", "name": "Bahir Dar Airport", "municipality": "Bahir Dar", "country": "ET", "type": "medium_airport", "lat": 11.6081, "lon": 37.3216}, {"iata": "BJV", "icao": "LTFE", "name": "Milas Bodrum International Airport", "municipality": "Bodrum", "country": "TR", "type": "large_airport", "lat": 37.2493, "lon": 27.664}, {"iata": "BJX", "icao": "MMLO", "name": "Guanajuato International Airport", "municipality": "Silao", "country": "MX", "type": "large_airport", "lat": 20.9927, "lon": -101.4803}, {"iata": "BJY", "icao": "LYBT", "name": "Batajnica Air Base", "municipality": "Zemun", "country": "RS", "type": "medium_airport", "lat": 44.9353, "lon": 20.2575}, {"iata": "BJZ", "icao": "LEBZ", "name": "Badajoz Airport", "municipality": "Badajoz", "country": "ES", "type": "medium_airport", "lat": 38.8913, "lon": -6.8213}, {"iata": "BKA", "icao": "", "name": "Baykit Airport", "municipality": "Baykit", "country": "RU", "type": "medium_airport", "lat": 61.6767, "lon": 96.355}, {"iata": "BKB", "icao": "VIBK", "name": "Nal Airport", "municipality": "Bikaner", "country": "IN", "type": "medium_airport", "lat": 28.0706, "lon": 73.2072}, {"iata": "BKE", "icao": "KBKE", "name": "Baker City Municipal Airport", "municipality": "Baker City", "country": "US", "type": "medium_airport", "lat": 44.8373, "lon": -117.809}, {"iata": "BKG", "icao": "KBBG", "name": "Branson Airport", "municipality": "Branson", "country": "US", "type": "medium_airport", "lat": 36.5321, "lon": -93.2005}, {"iata": "BKH", "icao": "PHBK", "name": "Barking Sands Airport", "municipality": "Kekaha", "country": "US", "type": "medium_airport", "lat": 22.0228, "lon": -159.785}, {"iata": "BKI", "icao": "WBKK", "name": "Kota Kinabalu International Airport", "municipality": "Kota Kinabalu", "country": "MY", "type": "large_airport", "lat": 5.9327, "lon": 116.0493}, {"iata": "BKK", "icao": "VTBS", "name": "Suvarnabhumi Airport", "municipality": "Bangkok", "country": "TH", "type": "large_airport", "lat": 13.6811, "lon": 100.747}, {"iata": "BKL", "icao": "KBKL", "name": "Burke Lakefront Airport", "municipality": "Cleveland", "country": "US", "type": "medium_airport", "lat": 41.5175, "lon": -81.6833}, {"iata": "BKN", "icao": "UTAN", "name": "Balkanabat International Airport", "municipality": "Balkanabat", "country": "TM", "type": "medium_airport", "lat": 39.6811, "lon": 54.206}, {"iata": "BKO", "icao": "GABS", "name": "Modibo Keita International Airport", "municipality": "Bamako", "country": "ML", "type": "large_airport", "lat": 12.5335, "lon": -7.9499}, {"iata": "BKQ", "icao": "YBCK", "name": "Blackall Airport", "municipality": "Blackall", "country": "AU", "type": "medium_airport", "lat": -24.4317, "lon": 145.4297}, {"iata": "BKS", "icao": "WIGG", "name": "Fatmawati Soekarno Airport", "municipality": "Bengkulu", "country": "ID", "type": "medium_airport", "lat": -3.8637, "lon": 102.339}, {"iata": "BKW", "icao": "KBKW", "name": "Raleigh County Memorial Airport", "municipality": "Beaver", "country": "US", "type": "medium_airport", "lat": 37.7873, "lon": -81.1242}, {"iata": "BKY", "icao": "FZMA", "name": "Bukavu Kavumu Airport", "municipality": "Kamakombe", "country": "CD", "type": "medium_airport", "lat": -2.309, "lon": 28.8088}, {"iata": "BLA", "icao": "SVBC", "name": "General José Antonio Anzoategui International Airport", "municipality": "Barcelona", "country": "VE", "type": "large_airport", "lat": 10.1111, "lon": -64.6922}, {"iata": "BLD", "icao": "", "name": "Boulder City Municipal Airport", "municipality": "Boulder City", "country": "US", "type": "medium_airport", "lat": 35.9472, "lon": -114.8588}, {"iata": "BLE", "icao": "ESSD", "name": "Dala Airport", "municipality": "Borlange", "country": "SE", "type": "medium_airport", "lat": 60.422, "lon": 15.5152}, {"iata": "BLF", "icao": "KBLF", "name": "Mercer County Airport", "municipality": "Bluefield", "country": "US", "type": "medium_airport", "lat": 37.2958, "lon": -81.2077}, {"iata": "BLH", "icao": "KBLH", "name": "Blythe Airport", "municipality": "Blythe", "country": "US", "type": "medium_airport", "lat": 33.6192, "lon": -114.717}, {"iata": "BLI", "icao": "KBLI", "name": "Bellingham International Airport", "municipality": "Bellingham", "country": "US", "type": "medium_airport", "lat": 48.7928, "lon": -122.538}, {"iata": "BLJ", "icao": "DABT", "name": "Batna Mostefa Ben Boulaid Airport", "municipality": "Batna", "country": "DZ", "type": "large_airport", "lat": 35.7521, "lon": 6.3086}, {"iata": "BLK", "icao": "EGNH", "name": "Blackpool Airport", "municipality": "Blackpool", "country": "GB", "type": "medium_airport", "lat": 53.7717, "lon": -3.0286}, {"iata": "BLL", "icao": "EKBI", "name": "Billund Airport", "municipality": "Billund", "country": "DK", "type": "large_airport", "lat": 55.7403, "lon": 9.157}, {"iata": "BLN", "icao": "YBLA", "name": "Benalla Airport", "municipality": "Benalla", "country": "AU", "type": "medium_airport", "lat": -36.5519, "lon": 146.007}, {"iata": "BLQ", "icao": "LIPE", "name": "Bologna Guglielmo Marconi Airport", "municipality": "Bologna", "country": "IT", "type": "large_airport", "lat": 44.5354, "lon": 11.2887}, {"iata": "BLR", "icao": "VOBL", "name": "Kempegowda International Airport Bengaluru", "municipality": "Bengaluru", "country": "IN", "type": "large_airport", "lat": 13.1979, "lon": 77.7063}, {"iata": "BLT", "icao": "YBTR", "name": "Blackwater Airport", "municipality": "", "country": "AU", "type": "medium_airport", "lat": -23.6031, "lon": 148.807}, {"iata": "BLV", "icao": "KBLV", "name": "Scott AFB/Midamerica Airport", "municipality": "Belleville", "country": "US", "type": "medium_airport", "lat": 38.5452, "lon": -89.8352}, {"iata": "BLZ", "icao": "FWCL", "name": "Chileka International Airport", "municipality": "Blantyre", "country": "MW", "type": "large_airport", "lat": -15.6772, "lon": 34.9723}, {"iata": "BMA", "icao": "ESSB", "name": "Stockholm-Bromma Airport", "municipality": "Stockholm", "country": "SE", "type": "medium_airport", "lat": 59.3544, "lon": 17.9417}, {"iata": "BME", "icao": "YBRM", "name": "Broome International Airport", "municipality": "Broome", "country": "AU", "type": "large_airport", "lat": -17.9492, "lon": 122.2283}, {"iata": "BMG", "icao": "KBMG", "name": "Monroe County Airport", "municipality": "Bloomington", "country": "US", "type": "medium_airport", "lat": 39.146, "lon": -86.6167}, {"iata": "BMI", "icao": "KBMI", "name": "Central Illinois Regional Airport at Bloomington-Normal", "municipality": "Bloomington/Normal", "country": "US", "type": "medium_airport", "lat": 40.4771, "lon": -88.9159}, {"iata": "BMM", "icao": "FOOB", "name": "Bitam Airport", "municipality": "Bitam", "country": "GA", "type": "medium_airport", "lat": 2.0756, "lon": 11.4932}, {"iata": "BMU", "icao": "WADB", "name": "Sultan Muhammad Salahuddin Airport", "municipality": "Bima", "country": "ID", "type": "medium_airport", "lat": -8.5372, "lon": 118.685}, {"iata": "BMV", "icao": "VVBM", "name": "Buon Ma Thuot Airport", "municipality": "Buon Ma Thuot", "country": "VN", "type": "medium_airport", "lat": 12.6683, "lon": 108.12}, {"iata": "BMW", "icao": "DATM", "name": "Bordj Badji Mokhtar Airport", "municipality": "Bordj Badji Mokhtar", "country": "DZ", "type": "medium_airport", "lat": 21.3778, "lon": 0.927}, {"iata": "BNA", "icao": "KBNA", "name": "Nashville International Airport", "municipality": "Nashville", "country": "US", "type": "large_airport", "lat": 36.1245, "lon": -86.6782}, {"iata": "BND", "icao": "OIKB", "name": "Bandar Abbas International Airport", "municipality": "Bandar Abbas", "country": "IR", "type": "large_airport", "lat": 27.2183, "lon": 56.3778}, {"iata": "BNE", "icao": "YBBN", "name": "Brisbane International Airport", "municipality": "Brisbane", "country": "AU", "type": "large_airport", "lat": -27.3842, "lon": 153.117}, {"iata": "BNI", "icao": "DNBE", "name": "Benin Airport", "municipality": "Benin", "country": "NG", "type": "medium_airport", "lat": 6.317, "lon": 5.5995}, {"iata": "BNK", "icao": "YBNA", "name": "Ballina Byron Gateway Airport", "municipality": "Ballina", "country": "AU", "type": "medium_airport", "lat": -28.8332, "lon": 153.5615}, {"iata": "BNN", "icao": "ENBN", "name": "Brønnøysund Airport, Brønnøy", "municipality": "Brønnøy", "country": "NO", "type": "medium_airport", "lat": 65.4611, "lon": 12.2175}, {"iata": "BNO", "icao": "KBNO", "name": "Burns Municipal Airport", "municipality": "Burns", "country": "US", "type": "medium_airport", "lat": 43.5905, "lon": -118.9552}, {"iata": "BNS", "icao": "SVBI", "name": "Barinas Airport", "municipality": "Barinas", "country": "VE", "type": "medium_airport", "lat": 8.615, "lon": -70.2142}, {"iata": "BNX", "icao": "LQBK", "name": "Banja Luka International Airport", "municipality": "Mahovljani", "country": "BA", "type": "large_airport", "lat": 44.9414, "lon": 17.2975}, {"iata": "BOB", "icao": "NTTB", "name": "Bora Bora Airport", "municipality": "Motu Mute", "country": "PF", "type": "medium_airport", "lat": -16.4444, "lon": -151.751}, {"iata": "BOC", "icao": "MPBO", "name": "Bocas del Toro \"Isla Colón\" International Airport", "municipality": "Isla Colón", "country": "PA", "type": "medium_airport", "lat": 9.3408, "lon": -82.2508}, {"iata": "BOD", "icao": "LFBD", "name": "Bordeaux–Mérignac Airport", "municipality": "Bordeaux", "country": "FR", "type": "large_airport", "lat": 44.8287, "lon": -0.7154}, {"iata": "BOG", "icao": "SKBO", "name": "El Dorado International Airport", "municipality": "Bogota", "country": "CO", "type": "large_airport", "lat": 4.7016, "lon": -74.1469}, {"iata": "BOH", "icao": "EGHH", "name": "Bournemouth Airport", "municipality": "Bournemouth", "country": "GB", "type": "medium_airport", "lat": 50.7805, "lon": -1.8396}, {"iata": "BOI", "icao": "KBOI", "name": "Boise Air Terminal/Gowen Field", "municipality": "Boise", "country": "US", "type": "large_airport", "lat": 43.5644, "lon": -116.223}, {"iata": "BOJ", "icao": "LBBG", "name": "Burgas Airport", "municipality": "Burgas", "country": "BG", "type": "large_airport", "lat": 42.5699, "lon": 27.5152}, {"iata": "BOM", "icao": "VABB", "name": "Chhatrapati Shivaji Maharaj International Airport", "municipality": "Mumbai", "country": "IN", "type": "large_airport", "lat": 19.0887, "lon": 72.8679}, {"iata": "BON", "icao": "TNCB", "name": "Flamingo International Airport", "municipality": "Kralendijk", "country": "BQ", "type": "large_airport", "lat": 12.131, "lon": -68.2685}, {"iata": "BOO", "icao": "ENBO", "name": "Bodø Airport", "municipality": "Bodø", "country": "NO", "type": "large_airport", "lat": 67.2692, "lon": 14.3653}, {"iata": "BOR", "icao": "VLBK", "name": "Bokeo International Airport", "municipality": "Ton Phueng", "country": "LA", "type": "medium_airport", "lat": 20.324, "lon": 100.1654}, {"iata": "BOS", "icao": "KBOS", "name": "Boston Logan International Airport", "municipality": "Boston", "country": "US", "type": "large_airport", "lat": 42.362, "lon": -71.0079}, {"iata": "BOU", "icao": "LFLD", "name": "Bourges airport", "municipality": "Bourges", "country": "FR", "type": "medium_airport", "lat": 47.0602, "lon": 2.3696}, {"iata": "BOY", "icao": "DFOO", "name": "Bobo Dioulasso Airport", "municipality": "Bobo Dioulasso", "country": "BF", "type": "large_airport", "lat": 11.1601, "lon": -4.331}, {"iata": "BPC", "icao": "FKKV", "name": "Bamenda Airport", "municipality": "Bamenda", "country": "CM", "type": "medium_airport", "lat": 6.0392, "lon": 10.1226}, {"iata": "BPE", "icao": "ZBDH", "name": "Qinhuangdao Beidaihe Airport", "municipality": "Qinhuangdao (Changli)", "country": "CN", "type": "medium_airport", "lat": 39.6664, "lon": 119.0614}, {"iata": "BPG", "icao": "SBBW", "name": "Barra do Garças Airport", "municipality": "Barra do Garças", "country": "BR", "type": "medium_airport", "lat": -15.8614, "lon": -52.389}, {"iata": "BPH", "icao": "RPMF", "name": "Bislig Airport", "municipality": "Bislig", "country": "PH", "type": "medium_airport", "lat": 8.1951, "lon": 126.321}, {"iata": "BPI", "icao": "KBPI", "name": "Miley Memorial Field", "municipality": "Big Piney", "country": "US", "type": "medium_airport", "lat": 42.5851, "lon": -110.111}, {"iata": "BPL", "icao": "ZWBL", "name": "Bole Alashankou Airport", "municipality": "Bole", "country": "CN", "type": "medium_airport", "lat": 44.8955, "lon": 82.3001}, {"iata": "BPM", "icao": "VOHY", "name": "Begumpet Airport", "municipality": "Hyderabad", "country": "IN", "type": "medium_airport", "lat": 17.4531, "lon": 78.4676}, {"iata": "BPN", "icao": "WALL", "name": "Sultan Aji Muhammad Sulaiman Sepinggan International Airport", "municipality": "Balikpapan", "country": "ID", "type": "large_airport", "lat": -1.2683, "lon": 116.8945}, {"iata": "BPS", "icao": "SBPS", "name": "Porto Seguro International Airport", "municipality": "Porto Seguro", "country": "BR", "type": "large_airport", "lat": -16.4384, "lon": -39.0806}, {"iata": "BPT", "icao": "KBPT", "name": "Jack Brooks Regional Airport", "municipality": "Beaumont/Port Arthur", "country": "US", "type": "medium_airport", "lat": 29.9508, "lon": -94.0207}, {"iata": "BPX", "icao": "ZUBD", "name": "Qamdo Bangda Airport", "municipality": "Bangda", "country": "CN", "type": "medium_airport", "lat": 30.5536, "lon": 97.1083}, {"iata": "BPY", "icao": "FMNQ", "name": "Besalampy Airport", "municipality": "Besalampy", "country": "MG", "type": "medium_airport", "lat": -16.7445, "lon": 44.4825}, {"iata": "BQA", "icao": "RPUR", "name": "Dr. Juan C. Angara Airport", "municipality": "Baler", "country": "PH", "type": "medium_airport", "lat": 15.7293, "lon": 121.5}, {"iata": "BQH", "icao": "EGKB", "name": "London Biggin Hill Airport", "municipality": "London", "country": "GB", "type": "medium_airport", "lat": 51.3308, "lon": 0.0325}, {"iata": "BQK", "icao": "KBQK", "name": "Brunswick Golden Isles Airport", "municipality": "Brunswick", "country": "US", "type": "medium_airport", "lat": 31.2588, "lon": -81.4665}, {"iata": "BQL", "icao": "YBOU", "name": "Boulia Airport", "municipality": "", "country": "AU", "type": "medium_airport", "lat": -22.9133, "lon": 139.9}, {"iata": "BQN", "icao": "TJBQ", "name": "Rafael Hernández International Airport", "municipality": "Aguadilla", "country": "PR", "type": "medium_airport", "lat": 18.4949, "lon": -67.1294}, {"iata": "BQS", "icao": "UHBB", "name": "Ignatyevo Airport", "municipality": "Blagoveschensk", "country": "RU", "type": "medium_airport", "lat": 50.4254, "lon": 127.412}, {"iata": "BQT", "icao": "UMBB", "name": "Brest International Airport", "municipality": "Brest", "country": "BY", "type": "large_airport", "lat": 52.1081, "lon": 23.8968}, {"iata": "BQU", "icao": "TVSB", "name": "J F Mitchell Airport", "municipality": "Bequia", "country": "VC", "type": "medium_airport", "lat": 12.9884, "lon": -61.262}, {"iata": "BRC", "icao": "SAZS", "name": "Teniente Luis Candelaria International Airport", "municipality": "San Carlos de Bariloche", "country": "AR", "type": "large_airport", "lat": -41.1512, "lon": -71.1575}, {"iata": "BRD", "icao": "KBRD", "name": "Brainerd Lakes Regional Airport", "municipality": "Brainerd", "country": "US", "type": "medium_airport", "lat": 46.4029, "lon": -94.1297}, {"iata": "BRE", "icao": "EDDW", "name": "Bremen Airport", "municipality": "Bremen", "country": "DE", "type": "large_airport", "lat": 53.0468, "lon": 8.7893}, {"iata": "BRI", "icao": "LIBD", "name": "Bari Karol Wojtyła International Airport", "municipality": "Bari", "country": "IT", "type": "large_airport", "lat": 41.1389, "lon": 16.7606}, {"iata": "BRK", "icao": "YBKE", "name": "Bourke Airport", "municipality": "", "country": "AU", "type": "medium_airport", "lat": -30.0392, "lon": 145.952}, {"iata": "BRL", "icao": "KBRL", "name": "Southeast Iowa Regional Airport", "municipality": "Burlington", "country": "US", "type": "medium_airport", "lat": 40.7832, "lon": -91.1255}, {"iata": "BRM", "icao": "SVBM", "name": "Jacinto Lara International Airport", "municipality": "Barquisimeto", "country": "VE", "type": "large_airport", "lat": 10.0427, "lon": -69.3586}, {"iata": "BRN", "icao": "LSZB", "name": "Bern Airport", "municipality": "Bern", "country": "CH", "type": "medium_airport", "lat": 46.9127, "lon": 7.4988}, {"iata": "BRO", "icao": "KBRO", "name": "Brownsville South Padre Island International Airport", "municipality": "Brownsville", "country": "US", "type": "medium_airport", "lat": 25.9072, "lon": -97.4252}, {"iata": "BRQ", "icao": "LKTB", "name": "Brno-Tuřany Airport", "municipality": "Brno", "country": "CZ", "type": "medium_airport", "lat": 49.1513, "lon": 16.694}, {"iata": "BRR", "icao": "EGPR", "name": "Barra Airport", "municipality": "Eoligarry", "country": "GB", "type": "medium_airport", "lat": 57.0228, "lon": -7.4431}, {"iata": "BRS", "icao": "EGGD", "name": "Bristol Airport", "municipality": "Bristol", "country": "GB", "type": "large_airport", "lat": 51.3823, "lon": -2.7165}, {"iata": "BRT", "icao": "YBTI", "name": "Bathurst Island Airport", "municipality": "Wurrumiyanga", "country": "AU", "type": "medium_airport", "lat": -11.765, "lon": 130.6158}, {"iata": "BRU", "icao": "EBBR", "name": "Brussels Airport", "municipality": "Zaventem", "country": "BE", "type": "large_airport", "lat": 50.9014, "lon": 4.4844}, {"iata": "BRW", "icao": "PABR", "name": "Wiley Post Will Rogers Memorial Airport", "municipality": "Utqiaġvik", "country": "US", "type": "medium_airport", "lat": 71.2854, "lon": -156.766}, {"iata": "BRX", "icao": "MDBH", "name": "Maria Montez International Airport", "municipality": "Barahona", "country": "DO", "type": "medium_airport", "lat": 18.2515, "lon": -71.1204}, {"iata": "BSA", "icao": "HCMF", "name": "Bender Qassim International Airport", "municipality": "Bosaso", "country": "SO", "type": "large_airport", "lat": 11.2752, "lon": 49.1392}, {"iata": "BSB", "icao": "SBBR", "name": "Presidente Juscelino Kubitschek International Airport", "municipality": "Brasília", "country": "BR", "type": "large_airport", "lat": -15.8692, "lon": -47.9208}, {"iata": "BSC", "icao": "SKBS", "name": "José Celestino Mutis Airport", "municipality": "Bahía Solano", "country": "CO", "type": "medium_airport", "lat": 6.2029, "lon": -77.3947}, {"iata": "BSD", "icao": "ZPBS", "name": "Baoshan Yunrui Airport", "municipality": "Baoshan (Longyang)", "country": "CN", "type": "medium_airport", "lat": 25.0533, "lon": 99.1683}, {"iata": "BSG", "icao": "FGBT", "name": "Bata International Airport", "municipality": "Bata", "country": "GQ", "type": "large_airport", "lat": 1.9055, "lon": 9.8057}, {"iata": "BSJ", "icao": "YBNS", "name": "Bairnsdale Airport", "municipality": "Bairnsdale", "country": "AU", "type": "medium_airport", "lat": -37.8875, "lon": 147.5694}, {"iata": "BSK", "icao": "DAUB", "name": "Biskra - Mohamed Khider Airport", "municipality": "Biskra", "country": "DZ", "type": "large_airport", "lat": 34.7932, "lon": 5.7389}, {"iata": "BSL", "icao": "LFSB", "name": "EuroAirport Basel–Mulhouse–Freiburg", "municipality": "Bâle / Mulhouse", "country": "FR", "type": "large_airport", "lat": 47.6007, "lon": 7.5211}, {"iata": "BSO", "icao": "RPUO", "name": "Basco Airport", "municipality": "Basco", "country": "PH", "type": "medium_airport", "lat": 20.4513, "lon": 121.98}, {"iata": "BSR", "icao": "ORMM", "name": "Basra International Airport", "municipality": "Basra", "country": "IQ", "type": "large_airport", "lat": 30.5491, "lon": 47.6621}, {"iata": "BSZ", "icao": "UCFM", "name": "Manas International Airport", "municipality": "Bishkek", "country": "KG", "type": "large_airport", "lat": 43.0613, "lon": 74.4776}, {"iata": "BTC", "icao": "VCCB", "name": "Batticaloa International Airport", "municipality": "Batticaloa", "country": "LK", "type": "medium_airport", "lat": 7.7051, "lon": 81.6772}, {"iata": "BTH", "icao": "WIDD", "name": "Hang Nadim International Airport", "municipality": "Batam", "country": "ID", "type": "large_airport", "lat": 1.121, "lon": 104.119}, {"iata": "BTI", "icao": "PABA", "name": "Barter Island Long Range Radar Station Airport", "municipality": "Barter Island", "country": "US", "type": "medium_airport", "lat": 70.134, "lon": -143.582}, {"iata": "BTJ", "icao": "WITT", "name": "Sultan Iskandar Muda International Airport", "municipality": "Banda Aceh", "country": "ID", "type": "large_airport", "lat": 5.5251, "lon": 95.42}, {"iata": "BTK", "icao": "UIBB", "name": "Bratsk Airport", "municipality": "Bratsk", "country": "RU", "type": "medium_airport", "lat": 56.3696, "lon": 101.7018}, {"iata": "BTL", "icao": "KBTL", "name": "Battle Creek Executive Airport at Kellogg Field", "municipality": "Battle Creek", "country": "US", "type": "medium_airport", "lat": 42.3073, "lon": -85.2515}, {"iata": "BTM", "icao": "KBTM", "name": "Bert Mooney Airport", "municipality": "Butte", "country": "US", "type": "medium_airport", "lat": 45.9548, "lon": -112.497}, {"iata": "BTR", "icao": "KBTR", "name": "Baton Rouge Metropolitan Airport", "municipality": "Baton Rouge", "country": "US", "type": "medium_airport", "lat": 30.5332, "lon": -91.1496}, {"iata": "BTS", "icao": "LZIB", "name": "M. R. Štefánik Airport", "municipality": "Bratislava", "country": "SK", "type": "large_airport", "lat": 48.1702, "lon": 17.2127}, {"iata": "BTU", "icao": "WBGB", "name": "Bintulu Airport", "municipality": "Bintulu", "country": "MY", "type": "medium_airport", "lat": 3.1239, "lon": 113.02}, {"iata": "BTV", "icao": "KBTV", "name": "Patrick Leahy Burlington International Airport", "municipality": "Burlington", "country": "US", "type": "medium_airport", "lat": 44.4719, "lon": -73.1533}, {"iata": "BTZ", "icao": "VTSY", "name": "Betong International Airport", "municipality": "Betong", "country": "TH", "type": "medium_airport", "lat": 5.79, "lon": 101.15}, {"iata": "BUA", "icao": "AYBK", "name": "Buka Airport", "municipality": "Buka Island", "country": "PG", "type": "medium_airport", "lat": -5.4223, "lon": 154.6727}, {"iata": "BUD", "icao": "LHBP", "name": "Budapest Liszt Ferenc International Airport", "municipality": "Budapest", "country": "HU", "type": "large_airport", "lat": 47.4302, "lon": 19.2624}, {"iata": "BUF", "icao": "KBUF", "name": "Buffalo Niagara International Airport", "municipality": "Buffalo", "country": "US", "type": "large_airport", "lat": 42.9405, "lon": -78.7322}, {"iata": "BUG", "icao": "FNBG", "name": "Benguela Airport", "municipality": "Benguela", "country": "AO", "type": "medium_airport", "lat": -12.609, "lon": 13.4037}, {"iata": "BUJ", "icao": "DAAD", "name": "Bou Saada Airport", "municipality": "Ouled Sidi Brahim", "country": "DZ", "type": "medium_airport", "lat": 35.3325, "lon": 4.2064}, {"iata": "BUN", "icao": "SKBU", "name": "Gerardo Tobar López Airport", "municipality": "Buenaventura", "country": "CO", "type": "medium_airport", "lat": 3.8196, "lon": -76.9898}, {"iata": "BUP", "icao": "VIBT", "name": "Bhatinda Air Force Station", "municipality": "", "country": "IN", "type": "medium_airport", "lat": 30.2701, "lon": 74.7558}, {"iata": "BUQ", "icao": "FVJN", "name": "Joshua Mqabuko Nkomo International Airport", "municipality": "Bulawayo", "country": "ZW", "type": "large_airport", "lat": -20.0163, "lon": 28.6229}, {"iata": "BUR", "icao": "KBUR", "name": "Hollywood Burbank/Bob Hope Airport", "municipality": "Burbank", "country": "US", "type": "large_airport", "lat": 34.2028, "lon": -118.3581}, {"iata": "BUS", "icao": "UGSB", "name": "Alexander Kartveli Batumi International Airport", "municipality": "Batumi", "country": "GE", "type": "large_airport", "lat": 41.6094, "lon": 41.6003}, {"iata": "BUX", "icao": "FZKA", "name": "Bunia Airport", "municipality": "Bunia", "country": "CD", "type": "medium_airport", "lat": 1.5657, "lon": 30.2207}, {"iata": "BUZ", "icao": "OIBB", "name": "Bushehr Airport", "municipality": "Bushehr", "country": "IR", "type": "medium_airport", "lat": 28.9448, "lon": 50.8346}, {"iata": "BVA", "icao": "LFOB", "name": "Beauvais-Tillé airport", "municipality": "Beauvais", "country": "FR", "type": "large_airport", "lat": 49.4544, "lon": 2.1128}, {"iata": "BVB", "icao": "SBBV", "name": "Atlas Brasil Cantanhede International Airport", "municipality": "Boa Vista", "country": "BR", "type": "large_airport", "lat": 2.8462, "lon": -60.6906}, {"iata": "BVC", "icao": "GVBA", "name": "Aristides Pereira International Airport", "municipality": "Rabil", "country": "CV", "type": "large_airport", "lat": 16.1365, "lon": -22.8889}, {"iata": "BVE", "icao": "LFSL", "name": "Brive Souillac airport", "municipality": "Brive", "country": "FR", "type": "medium_airport", "lat": 45.0397, "lon": 1.4856}, {"iata": "BVG", "icao": "ENBV", "name": "Berlevåg Airport", "municipality": "Berlevåg", "country": "NO", "type": "medium_airport", "lat": 70.8715, "lon": 29.0341}, {"iata": "BVH", "icao": "SBVH", "name": "Brigadeiro Camarão Airport", "municipality": "Vilhena", "country": "BR", "type": "medium_airport", "lat": -12.6944, "lon": -60.0983}, {"iata": "BVI", "icao": "YBDV", "name": "Birdsville Airport", "municipality": "", "country": "AU", "type": "medium_airport", "lat": -25.8975, "lon": 139.348}, {"iata": "BVJ", "icao": "USDB", "name": "Bovanenkovo Airport", "municipality": "Bovanenkovo", "country": "RU", "type": "medium_airport", "lat": 70.3153, "lon": 68.3336}, {"iata": "BVY", "icao": "KBVY", "name": "Beverly Regional Airport", "municipality": "Beverly / Danvers", "country": "US", "type": "medium_airport", "lat": 42.5842, "lon": -70.9165}, {"iata": "BWA", "icao": "VNBW", "name": "Gautam Buddha International Airport", "municipality": "Siddharthanagar (Bhairahawa)", "country": "NP", "type": "large_airport", "lat": 27.5046, "lon": 83.4104}, {"iata": "BWE", "icao": "EDVE", "name": "Braunschweig-Wolfsburg Airport", "municipality": "Braunschweig", "country": "DE", "type": "medium_airport", "lat": 52.3192, "lon": 10.5561}, {"iata": "BWF", "icao": "EGNL", "name": "Barrow Walney Island Airport", "municipality": "Barrow-in-Furness", "country": "GB", "type": "medium_airport", "lat": 54.1286, "lon": -3.2675}, {"iata": "BWG", "icao": "KBWG", "name": "Bowling Green Warren County Regional Airport", "municipality": "Bowling Green", "country": "US", "type": "medium_airport", "lat": 36.9645, "lon": -86.4197}, {"iata": "BWH", "icao": "WMKB", "name": "RMAF Butterworth Air Base", "municipality": "Butterworth", "country": "MY", "type": "medium_airport", "lat": 5.4659, "lon": 100.391}, {"iata": "BWI", "icao": "KBWI", "name": "Baltimore/Washington International Thurgood Marshall Airport", "municipality": "Baltimore", "country": "US", "type": "large_airport", "lat": 39.1754, "lon": -76.6683}, {"iata": "BWK", "icao": "LDSB", "name": "Brač Airport", "municipality": "Gornji Humac", "country": "HR", "type": "medium_airport", "lat": 43.2845, "lon": 16.6784}, {"iata": "BWN", "icao": "WBSB", "name": "Brunei International Airport", "municipality": "Bandar Seri Begawan", "country": "BN", "type": "large_airport", "lat": 4.9442, "lon": 114.928}, {"iata": "BWO", "icao": "UWSB", "name": "Balakovo Airport", "municipality": "Balakovo", "country": "RU", "type": "medium_airport", "lat": 51.8583, "lon": 47.7456}, {"iata": "BWQ", "icao": "YBRW", "name": "Brewarrina Airport", "municipality": "", "country": "AU", "type": "medium_airport", "lat": -29.9758, "lon": 146.8144}, {"iata": "BWT", "icao": "YWYY", "name": "Wynyard Airport", "municipality": "Burnie", "country": "AU", "type": "medium_airport", "lat": -40.997, "lon": 145.726}, {"iata": "BWU", "icao": "YSBK", "name": "Sydney Bankstown Airport", "municipality": "Sydney", "country": "AU", "type": "medium_airport", "lat": -33.9236, "lon": 150.9908}, {"iata": "BXB", "icao": "WASO", "name": "Babo Airport", "municipality": "Babo", "country": "ID", "type": "medium_airport", "lat": -2.5322, "lon": 133.439}, {"iata": "BXE", "icao": "GOTB", "name": "Bakel Airport", "municipality": "Bakel", "country": "SN", "type": "medium_airport", "lat": 14.8473, "lon": -12.4683}, {"iata": "BXH", "icao": "UAAH", "name": "Balkhash Airport", "municipality": "Balkhash", "country": "KZ", "type": "medium_airport", "lat": 46.8942, "lon": 75.0045}, {"iata": "BXR", "icao": "OIKM", "name": "Bam Airport", "municipality": "Bam", "country": "IR", "type": "medium_airport", "lat": 29.0842, "lon": 58.45}, {"iata": "BXU", "icao": "RPME", "name": "Bancasi Airport", "municipality": "Butuan", "country": "PH", "type": "medium_airport", "lat": 8.9515, "lon": 125.4788}, {"iata": "BXY", "icao": "UAOL", "name": "Baikonur Krayniy International Airport", "municipality": "Baikonur", "country": "KZ", "type": "large_airport", "lat": 45.622, "lon": 63.2108}, {"iata": "BYC", "icao": "SLYA", "name": "Yacuiba Airport", "municipality": "Yacuíba", "country": "BO", "type": "medium_airport", "lat": -21.9609, "lon": -63.6517}, {"iata": "BYH", "icao": "KBYH", "name": "Arkansas International Airport", "municipality": "Blytheville", "country": "US", "type": "medium_airport", "lat": 35.9643, "lon": -89.944}, {"iata": "BYI", "icao": "KBYI", "name": "Burley Municipal Airport", "municipality": "Burley", "country": "US", "type": "medium_airport", "lat": 42.5426, "lon": -113.772}, {"iata": "BYJ", "icao": "LPBJ", "name": "Beja Airport / Airbase", "municipality": "Beja", "country": "PT", "type": "medium_airport", "lat": 38.0789, "lon": -7.9324}, {"iata": "BYK", "icao": "DIBK", "name": "Bouaké Airport", "municipality": "Bouaké", "country": "CI", "type": "medium_airport", "lat": 7.7388, "lon": -5.0737}, {"iata": "BYM", "icao": "MUBY", "name": "Carlos Manuel de Cespedes Airport", "municipality": "Bayamo", "country": "CU", "type": "medium_airport", "lat": 20.3964, "lon": -76.6214}, {"iata": "BYN", "icao": "ZMBH", "name": "Bayankhongor Airport", "municipality": "Bayankhongor", "country": "MN", "type": "medium_airport", "lat": 46.1633, "lon": 100.704}, {"iata": "BYS", "icao": "KBYS", "name": "Bicycle Lake Army Air Field", "municipality": "Fort Irwin/Barstow", "country": "US", "type": "medium_airport", "lat": 35.2805, "lon": -116.63}, {"iata": "BYU", "icao": "EDQD", "name": "Bayreuth Airport", "municipality": "Bindlach", "country": "DE", "type": "medium_airport", "lat": 49.985, "lon": 11.64},