{"ports": [{"unlocode": "AEAJM", "name": "Ajman", "city": "Ajman", "country": "United Arab Emirates", "lat": 25.4052, "lon": 55.5136, "province": "Ajman"}, {"unlocode": "AEAUH", "name": "Abu Dhabi", "city": "Abu Dhabi", "country": "United Arab Emirates", "lat": 24.47, "lon": 54.37, "province": "Abu Z¸aby [Abu Dhabi]"}, {"unlocode": "AEDXB", "name": "Dubai", "city": "Dubai", "country": "United Arab Emirates", "lat": 25.25, "lon": 55.27, "province": "Dubayy [Dubai]"}, {"unlocode": "AEFJR", "name": "Al Fujayrah", "city": "Al Fujayrah", "country": "United Arab Emirates", "lat": 25.12, "lon": 56.33, "province": "Al Fujayrah"}, {"unlocode": "AEJEA", "name": "Jebel Ali", "city": "Jebel Ali", "country": "United Arab Emirates", "lat": 24.9857, "lon": 55.0273, "province": "Dubai"}, {"unlocode": "AEJED", "name": "Jebel Dhanna", "city": "Jebel Dhanna", "country": "United Arab Emirates", "lat": 24.1915, "lon": 52.6126, "province": "Abu Dhabi"}, {"unlocode": "AEKLF", "name": "Khor al Fakkan", "city": "Khor al Fakkan", "country": "United Arab Emirates", "lat": 25.33, "lon": 56.35, "province": ""}, {"unlocode": "AEPRA", "name": "Port Rashid", "city": "Port Rashid", "country": "United Arab Emirates", "lat": 25.2848, "lon": 55.2757, "province": "Dubai"}, {"unlocode": "AEQIW", "name": "Umm al Qaiwain", "city": "Umm al Qaiwain", "country": "United Arab Emirates", "lat": 25.57, "lon": 55.55, "province": "Umm Al Quwain"}, {"unlocode": "AERKT", "name": "Ras al Khaimah", "city": "Ras al Khaimah", "country": "United Arab Emirates", "lat": 25.78, "lon": 55.95, "province": "Ras al Khaimah"}, {"unlocode": "AERUW", "name": "Ar Ruways", "city": "Ar Ruways", "country": "United Arab Emirates", "lat": 24.12, "lon": 52.73, "province": "Abu Dhabi"}, {"unlocode": "AESHJ", "name": "Sharjah", "city": "Sharjah", "country": "United Arab Emirates", "lat": 25.35, "lon": 55.38, "province": "Ash Shariqah [Sharjah]"}, {"unlocode": "AGANU", "name": "Antigua", "city": "Antigua", "country": "Antigua and Barbuda", "lat": 17.0747, "lon": -61.8175, "province": ""}, {"unlocode": "AGSJO", "name": "Saint John's", "city": "Saint John's", "country": "Antigua and Barbuda", "lat": 17.12, "lon": -61.85, "province": "Saint John"}, {"unlocode": "AIBLP", "name": "Blowing Point", "city": "Blowing Point", "country": "Anguilla", "lat": 18.1773, "lon": -63.0935, "province": ""}, {"unlocode": "AIRBY", "name": "Road Bay", "city": "Road Bay", "country": "Anguilla", "lat": 18.2207, "lon": -63.0653, "province": ""}, {"unlocode": "ALDRZ", "name": "Durres", "city": "Durrës", "country": "Albania", "lat": 41.3328, "lon": 19.4616, "province": ""}, {"unlocode": "ANBON", "name": "Bonaire", "city": "Bonaire", "country": "Netherlands Antilles", "lat": 12.2019, "lon": -68.2624, "province": ""}, {"unlocode": "ANCUR", "name": "Curacao", "city": "Curacao", "country": "Netherlands Antilles", "lat": 12.1224, "lon": -68.8824, "province": "Curaçao"}, {"unlocode": "ANEUX", "name": "Sint Eustatius (Antilles)", "city": "Sint Eustatius (Antilles)", "country": "Netherlands", "lat": 18.0348, "lon": -63.0842, "province": "Sint Maarten"}, {"unlocode": "ANGSB", "name": "Galisby", "city": "Galisby", "country": "Netherlands Antilles", "lat": -68.4486, "lon": 12.1687, "province": ""}, {"unlocode": "ANPHI", "name": "Philipsburg", "city": "Philipsburg", "country": "Netherlands Antilles", "lat": 18.0296, "lon": -63.0471, "province": "Sint Maarten"}, {"unlocode": "ANSXM", "name": "St Maarten", "city": "St Maarten", "country": "Netherlands Antilles", "lat": 12.2249, "lon": -68.8109, "province": ""}, {"unlocode": "ANWIL", "name": "Willemstad", "city": "Willemstad", "country": "Netherlands Antilles", "lat": 12.1224, "lon": -68.8824, "province": "Curaçao"}, {"unlocode": "AOCAB", "name": "Cabinda", "city": "Cabinda", "country": "Angola", "lat": -5.5706, "lon": 12.1976, "province": "Cabinda"}, {"unlocode": "AOLAD", "name": "Luanda", "city": "Luanda", "country": "Angola", "lat": -8.84, "lon": 13.2894, "province": "Luanda"}, {"unlocode": "AOLOB", "name": "Lobito", "city": "Lobito", "country": "Angola", "lat": -12.3757, "lon": 13.561, "province": "Benguela"}, {"unlocode": "AOMSZ", "name": "Namibe", "city": "Namibe", "country": "Angola", "lat": -15.1978, "lon": 12.1576, "province": "Namibe"}, {"unlocode": "AOSZA", "name": "Soyo", "city": "Soyo", "country": "Angola", "lat": -6.141, "lon": 12.3521, "province": "Zaire"}, {"unlocode": "ARBHI", "name": "Bahia Blanca", "city": "Bahía Blanca", "country": "Argentina", "lat": -38.72, "lon": -62.28, "province": "Buenos Aires"}, {"unlocode": "ARBUE", "name": "Buenos Aires", "city": "Buenos Aires", "country": "Argentina", "lat": -34.58, "lon": -58.67, "province": "Ciudad Autónoma de Buenos Aires"}, {"unlocode": "ARCMP", "name": "Campana", "city": "Campana", "country": "Argentina", "lat": -34.15, "lon": -58.95, "province": "Buenos Aires"}, {"unlocode": "ARCNQ", "name": "Corrientes", "city": "Corrientes", "country": "Argentina", "lat": -27.4692, "lon": -58.8306, "province": "Corrientes"}, {"unlocode": "ARCRD", "name": "Comodoro Rivadavia", "city": "Comodoro Rivadavia", "country": "Argentina", "lat": -45.8656, "lon": -67.4822, "province": "Chubut"}, {"unlocode": "ARCVI", "name": "Caleta Olivia", "city": "Caleta Olivia", "country": "Argentina", "lat": -46.4426, "lon": -67.5172, "province": "Santa Cruz"}, {"unlocode": "ARDDC", "name": "Delta Dock", "city": "Delta Dock", "country": "Argentina", "lat": -59.1998, "lon": -34.0448, "province": "Rio Parana"}, {"unlocode": "ARLPG", "name": "La Plata", "city": "La Plata", "country": "Argentina", "lat": -34.85, "lon": -57.88, "province": "Buenos Aires"}, {"unlocode": "ARMDQ", "name": "Mar del Plata", "city": "Mar del Plata", "country": "Argentina", "lat": -38.05, "lon": -57.53, "province": "Buenos Aires"}, {"unlocode": "ARNEC", "name": "Necochea", "city": "Necochea", "country": "Argentina", "lat": -38.5545, "lon": -58.7396, "province": "Buenos Aires"}, {"unlocode": "AROYA", "name": "Goya", "city": "Goya", "country": "Argentina", "lat": -29.1442, "lon": -59.2643, "province": "Corrientes"}, {"unlocode": "ARPMY", "name": "Puerto Madryn", "city": "Puerto Madryn", "country": "Argentina", "lat": -42.75, "lon": -65.03, "province": "Chubut"}, {"unlocode": "ARPUD", "name": "Puerto Deseado", "city": "Puerto Deseado", "country": "Argentina", "lat": -47.75, "lon": -65.9, "province": "Santa Cruz"}, {"unlocode": "ARRGA", "name": "Rio Grande", "city": "Río Grande", "country": "Argentina", "lat": -53.78, "lon": -67.7, "province": "Tierra del Fuego"}, {"unlocode": "ARRGL", "name": "Rio Gallegos", "city": "Río Gallegos", "country": "Argentina", "lat": -51.63, "lon": -69.22, "province": "Santa Cruz"}, {"unlocode": "ARRIC", "name": "Rio Cullen", "city": "Rio Cullen", "country": "Argentina", "lat": -52.8956, "lon": -68.3523, "province": "Zaire"}, {"unlocode": "ARROS", "name": "Rosario", "city": "Rosario", "country": "Argentina", "lat": -32.95, "lon": -60.65, "province": "Santa Fe"}, {"unlocode": "ARSAE", "name": "San Antonio Este", "city": "San Antonio Este", "country": "Argentina", "lat": -40.8, "lon": -64.73, "province": "Río Negro"}, {"unlocode": "ARSFN", "name": "Santa Fe", "city": "Santa Fe", "country": "Argentina", "lat": -31.6, "lon": -60.68, "province": "Santa Fe"}, {"unlocode": "ARSLO", "name": "San Lorenzo", "city": "San Lorenzo", "country": "Argentina", "lat": -32.8073, "lon": -60.7239, "province": "La Pampa"}, {"unlocode": "ARSNS", "name": "San Nicolas de los Arroyos", "city": "San Nicolás de los Arroyos", "country": "Argentina", "lat": -33.33, "lon": -60.23, "province": "Buenos Aires"}, {"unlocode": "ARSPD", "name": "San Pedro", "city": "San Pedro", "country": "Argentina", "lat": -33.68, "lon": -59.17, "province": "Entre Ríos"}, {"unlocode": "ARUSH", "name": "Ushuaia", "city": "Ushuaia", "country": "Argentina", "lat": -54.8, "lon": -68.3, "province": "Tierra del Fuego"}, {"unlocode": "ARZAE", "name": "Zarate", "city": "Zárate", "country": "Argentina", "lat": -34.1, "lon": -59.03, "province": "Buenos Aires"}, {"unlocode": "ASPPG", "name": "Pago Pago", "city": "Pago Pago", "country": "American Samoa", "lat": -14.2756, "lon": -170.702, "province": "Eastern"}, {"unlocode": "ATLTX", "name": "Hainfeld", "city": "Hainfeld", "country": "Austria", "lat": 48.0337, "lon": 15.7733, "province": "Niederösterreich"}, {"unlocode": "AUABP", "name": "Abbot Point", "city": "Abbot Point", "country": "Australia", "lat": -19.9079, "lon": 148.0847, "province": "Queensland"}, {"unlocode": "AUADL", "name": "Adelaide", "city": "Adelaide", "country": "Australia", "lat": -34.92, "lon": 138.58, "province": "South Australia"}, {"unlocode": "AUARD", "name": "Ardrossan", "city": "Ardrossan", "country": "Australia", "lat": -34.4231, "lon": 137.9174, "province": "South Australia"}, {"unlocode": "AUBBY", "name": "Bremer Bay", "city": "Bremer Bay", "country": "Australia", "lat": -34.3926, "lon": 119.3794, "province": "Western Australia"}, {"unlocode": "AUBEL", "name": "Bell Bay", "city": "Bell Bay", "country": "Australia", "lat": -41.1154, "lon": 146.8636, "province": "Tasmania"}, {"unlocode": "AUBNE", "name": "Brisbane", "city": "Brisbane", "country": "Australia", "lat": -27.47, "lon": 153.02, "province": "Queensland"}, {"unlocode": "AUBOO", "name": "Booby Island", "city": "Booby Island", "country": "Australia", "lat": -10.6, "lon": 141.92, "province": "Queensland"}, {"unlocode": "AUBWT", "name": "Burnie", "city": "Burnie", "country": "Australia", "lat": -41.0525, "lon": 145.9069, "province": "Tasmania"}, {"unlocode": "AUCHT", "name": "Chittering", "city": "Chittering", "country": "Australia", "lat": -31.4701, "lon": 116.101, "province": "Western Australia"}, {"unlocode": "AUCNS", "name": "Cairns", "city": "Cairns", "country": "Australia", "lat": -16.9203, "lon": 145.7709, "province": "Queensland"}, {"unlocode": "AUDPO", "name": "Devonport", "city": "Devonport", "country": "Australia", "lat": -41.1784, "lon": 146.361, "province": "Tasmania"}, {"unlocode": "AUDRW", "name": "Darwin", "city": "Darwin", "country": "Australia", "lat": -12.45, "lon": 130.83, "province": "Northern Territory"}, {"unlocode": "AUFRE", "name": "Fremantle", "city": "Fremantle", "country": "Australia", "lat": -32.056, "lon": 115.7472, "province": "Western Australia"}, {"unlocode": "AUGLT", "name": "Gladstone", "city": "Gladstone", "country": "Australia", "lat": -23.8487, "lon": 151.2598, "province": "Queensland"}, {"unlocode": "AUGOV", "name": "Gove", "city": "Gove", "country": "Australia", "lat": -12.3781, "lon": 130.8718, "province": "Northern Territory"}, {"unlocode": "AUHBA", "name": "Hobart", "city": "Hobart", "country": "Australia", "lat": -42.87, "lon": 147.3, "province": "Tasmania"}, {"unlocode": "AUHPT", "name": "Hay Point", "city": "Hay Point", "country": "Australia", "lat": -21.3056, "lon": 149.2922, "province": "Queensland"}, {"unlocode": "AULST", "name": "Launceston", "city": "Launceston", "country": "Australia", "lat": -41.4262, "lon": 147.1125, "province": "Tasmania"}, {"unlocode": "AUMEL", "name": "Melbourne", "city": "Melbourne", "country": "Australia", "lat": -37.82, "lon": 144.97, "province": "Victoria"}, {"unlocode": "AUNLK", "name": "New Norfolk", "city": "New Norfolk", "country": "Australia", "lat": -42.7807, "lon": 147.0636, "province": "Tasmania"}, {"unlocode": "AUNTL", "name": "Newcastle", "city": "Newcastle", "country": "Australia", "lat": -32.9267, "lon": 151.7789, "province": "New South Wales"}, {"unlocode": "AUPAE", "name": "Port Adelaide", "city": "Port Adelaide", "country": "Australia", "lat": -34.8477, "lon": 138.5074, "province": "South Australia"}, {"unlocode": "AUPHE", "name": "Port Hedland", "city": "Port Hedland", "country": "Australia", "lat": -20.3116, "lon": 118.5753, "province": "Western Australia"}, {"unlocode": "AUPKL", "name": "Port Kembla", "city": "Port Kembla", "country": "Australia", "lat": -34.4801, "lon": 150.9005, "province": "New South Wales"}, {"unlocode": "AUSYD", "name": "Sydney", "city": "Sydney", "country": "Australia", "lat": -33.85, "lon": 151.2, "province": "New South Wales"}, {"unlocode": "AUTSV", "name": "Townsville", "city": "Townsville", "country": "Australia", "lat": -19.2576, "lon": 146.8179, "province": "Queensland"}, {"unlocode": "AUWEI", "name": "Weipa", "city": "Weipa", "country": "Australia", "lat": -12.6591, "lon": 141.8384, "province": "Queensland"}, {"unlocode": "AWAUA", "name": "Aruba", "city": "Aruba", "country": "Aruba", "lat": 12.5, "lon": -69.97, "province": ""}, {"unlocode": "AWORJ", "name": "Oranjestad", "city": "Oranjestad", "country": "Aruba", "lat": 12.5092, "lon": -70.0086, "province": ""}, {"unlocode": "AZBAK", "name": "Baku", "city": "Baku", "country": "Azerbaijan", "lat": 40.4093, "lon": 49.8671, "province": ""}, {"unlocode": "BBBGI", "name": "Bridgetown", "city": "Bridgetown", "country": "Barbados", "lat": 13.1132, "lon": -59.5988, "province": "Saint Michael"}, {"unlocode": "BDCGP", "name": "Chittagong", "city": "Chittagong", "country": "Bangladesh", "lat": 22.3475, "lon": 91.8123, "province": "Chittagong Division"}, {"unlocode": "BDCHL", "name": "Chalna", "city": "Chalna", "country": "Bangladesh", "lat": 22.6037, "lon": 89.514, "province": "Khulna Division"}, {"unlocode": "BDDAC", "name": "Dhaka", "city": "Dhaka", "country": "Bangladesh", "lat": 23.8103, "lon": 90.4125, "province": "Dhaka Division"}, {"unlocode": "BDMGL", "name": "Mongla", "city": "Mongla", "country": "Bangladesh", "lat": 22.4942, "lon": 89.6016, "province": "Khulna Division"}, {"unlocode": "BEANR", "name": "Antwerpen", "city": "Antwerpen", "country": "Belgium", "lat": 51.22, "lon": 4.42, "province": "Antwerpen"}, {"unlocode": "BEBSU", "name": "Bossuit", "city": "Bossuit", "country": "Belgium", "lat": 50.7481, "lon": 3.4073, "province": "West-Vlaanderen"}, {"unlocode": "BEDEL", "name": "Doel", "city": "Doel", "country": "Belgium", "lat": 51.3106, "lon": 4.265, "province": "Oost-Vlaanderen"}, {"unlocode": "BEGNE", "name": "Gent (Ghent)", "city": "Gent (Ghent)", "country": "Belgium", "lat": 51.05, "lon": 3.72, "province": "Oost-Vlaanderen"}, {"unlocode": "BEOST", "name": "Oostende (Ostend)", "city": "Oostende (Ostend)", "country": "Belgium", "lat": 51.2, "lon": 2.92, "province": "West-Vlaanderen"}, {"unlocode": "BEZEE", "name": "Zeebrugge", "city": "Zeebrugge", "country": "Belgium", "lat": 51.33, "lon": 3.2, "province": "West-Vlaanderen"}, {"unlocode": "BFOUA", "name": "Ouagadougou", "city": "Ouagadougou", "country": "Burkina Faso", "lat": 12.3714, "lon": -1.5197, "province": "Centre"}, {"unlocode": "BGBOJ", "name": "Burgas", "city": "Burgas", "country": "Bulgaria", "lat": 42.5048, "lon": 27.4626, "province": "Burgas"}, {"unlocode": "BGVAR", "name": "Varna", "city": "Varna", "country": "Bulgaria", "lat": 43.2141, "lon": 27.9147, "province": "Varna"}, {"unlocode": "BHBAH", "name": "Bahrain", "city": "Bahrain", "country": "Bahrain", "lat": 26.27, "lon": 50.63, "province": "Al Muharraq"}, {"unlocode": "BHKBS", "name": "Khalifa Bin Salman Port", "city": "Khalifa Bin Salman", "country": "Bahrain", "lat": 26.2, "lon": 50.62, "province": "Al Muharraq"}, {"unlocode": "BHMAN", "name": "Manama", "city": "Manama", "country": "Bahrain", "lat": 26.2285, "lon": 50.586, "province": ""}, {"unlocode": "BHSIT", "name": "Sitrah", "city": "Sitrah", "country": "Bahrain", "lat": 26.13, "lon": 50.62, "province": "Al Wustá"}, {"unlocode": "BJCOO", "name": "Cotonou", "city": "Cotonou", "country": "Benin", "lat": 6.3703, "lon": 2.3912, "province": "Littoral"}, {"unlocode": "BMBDA", "name": "Hamilton", "city": "Hamilton", "country": "Bermuda", "lat": 32.2948, "lon": -64.7814, "province": "Hamilton"}, {"unlocode": "BMSOU", "name": "Southampton", "city": "Southampton", "country": "Bermuda", "lat": 50.9097, "lon": -1.4044, "province": "Zou"}, {"unlocode": "BNBWN", "name": "Bandar Seri Begawan", "city": "Bandar Seri Begawan", "country": "Brunei Darussalam", "lat": 4.88, "lon": 114.93, "province": "Brunei-Muara"}, {"unlocode": "BNKUB", "name": "Kuala Belait", "city": "Kuala Belait", "country": "Brunei Darussalam", "lat": 4.5832, "lon": 114.2212, "province": "Belait"}, {"unlocode": "BNMUA", "name": "Muara", "city": "Muara", "country": "Brunei Darussalam", "lat": 5.0333, "lon": 115.0733, "province": "Brunei-Muara"}, {"unlocode": "BOPBU", "name": "Puerto Busch", "city": "Puerto Busch", "country": "Bolivia, Plurinational State of", "lat": -20.0333, "lon": -57.9667, "province": "Santa Cruz"}, {"unlocode": "BOSRZ", "name": "Santa Cruz", "city": "Santa Cruz", "country": "Bolivia, Plurinational State of", "lat": -17.78, "lon": -63.18, "province": "La Paz"}, {"unlocode": "BRARB", "name": "Aratu", "city": "Aratu", "country": "Brazil", "lat": -12.7856, "lon": -38.4561, "province": "Bahia"}, {"unlocode": "BRARE", "name": "Areia Branca", "city": "Areia Branca", "country": "Brazil", "lat": -4.98, "lon": -37.17, "province": "Rio Grande do Norte"}, {"unlocode": "BRBEL", "name": "Belem", "city": "Belem", "country": "Brazil", "lat": -1.45, "lon": -48.5, "province": "Pará"}, {"unlocode": "BRCDO", "name": "Cabedelo", "city": "Cabedelo", "country": "Brazil", "lat": -6.9877, "lon": -34.8287, "province": "Paraíba"}, {"unlocode": "BRFNO", "name": "Forno", "city": "Forno", "country": "Brazil", "lat": -22.7584, "lon": -41.8808, "province": "Rio de Janeiro"}, {"unlocode": "BRFOR", "name": "Fortaleza", "city": "Fortaleza", "country": "Brazil", "lat": -3.7319, "lon": -38.5267, "province": "Ceará"}, {"unlocode": "BRIBB", "name": "Imbituba", "city": "Imbituba", "country": "Brazil", "lat": -28.2276, "lon": -48.6691, "province": "Santa Catarina"}, {"unlocode": "BRIGI", "name": "Itaguai", "city": "Itaguaí", "country": "Brazil", "lat": -22.87, "lon": -43.77, "province": "Rio de Janeiro"}, {"unlocode": "BRIOA", "name": "Itapoa", "city": "Itapoá", "country": "Brazil", "lat": -26.12, "lon": -48.6, "province": "Santa Catarina"}, {"unlocode": "BRIOS", "name": "Ilheus", "city": "Ilheus", "country": "Brazil", "lat": -14.7935, "lon": -39.0464, "province": "Bahia"}, {"unlocode": "BRIRO", "name": "Itabirito", "city": "Itabirito", "country": "Brazil", "lat": -20.2531, "lon": -43.8031, "province": "Minas Gerais"}, {"unlocode": "BRITJ", "name": "Itajai", "city": "Itajai", "country": "Brazil", "lat": -26.9106, "lon": -48.671, "province": "Santa Catarina"}, {"unlocode": "BRITQ", "name": "Itaqui", "city": "Itaqui", "country": "Brazil", "lat": -29.1294, "lon": -56.5481, "province": "Rio Grande do Sul"}, {"unlocode": "BRITZ", "name": "Itapemirim", "city": "Itapemirim", "country": "Brazil", "lat": -21.01, "lon": -40.8311, "province": "Espírito Santo"}, {"unlocode": "BRMAO", "name": "Manaus", "city": "Manaus", "country": "Brazil", "lat": -3.119, "lon": -60.0217, "province": "Amazonas"}, {"unlocode": "BRMCZ", "name": "Maceio", "city": "Maceió", "country": "Brazil", "lat": -9.67, "lon": -35.72, "province": "Alagoas"}, {"unlocode": "BRNAT", "name": "Natal", "city": "Natal", "country": "Brazil", "lat": -5.7793, "lon": -35.2009, "province": "Rio Grande do Norte"}, {"unlocode": "BRNVT", "name": "Navegantes", "city": "Navegantes", "country": "Brazil", "lat": -26.9, "lon": -48.65, "province": "Santa Catarina"}, {"unlocode": "BRPCL", "name": "Portocel", "city": "Portocel", "country": "Brazil", "lat": -19.1834, "lon": -40.3089, "province": "Espírito Santo"}, {"unlocode": "BRPEC", "name": "Pecem", "city": "Pecém", "country": "Brazil", "lat": -3.52, "lon": -38.87, "province": "Ceará"}, {"unlocode": "BRPNG", "name": "Paranagua", "city": "Paranaguá", "country": "Brazil", "lat": -25.52, "lon": -48.5, "province": "Paraná"}, {"unlocode": "BRPNN", "name": "Paranã", "city": "Paranã", "country": "Brazil", "lat": -12.6163, "lon": -47.8759, "province": "Tocantins"}, {"unlocode": "BRPOA", "name": "Porto Alegre", "city": "Pôrto Alegre", "country": "Brazil", "lat": -30.0346, "lon": -51.2177, "province": "Rio Grande do Sul"}, {"unlocode": "BRREC", "name": "Recife", "city": "Recife", "country": "Brazil", "lat": -8.0578, "lon": -34.8829, "province": "Pernambuco"}, {"unlocode": "BRRIG", "name": "Rio Grande", "city": "Rio Grande", "country": "Brazil", "lat": -32.0354, "lon": -52.1076, "province": "Rio Grande do Sul"}, {"unlocode": "BRRIO", "name": "Rio de Janeiro", "city": "Rio de Janeiro", "country": "Brazil", "lat": -22.9068, "lon": -43.1729, "province": "Rio de Janeiro"}, {"unlocode": "BRSAL", "name": "Salto Grande", "city": "Salto Grande", "country": "Brazil", "lat": -22.8899, "lon": -49.9836, "province": "São Paulo"}, {"unlocode": "BRSFS", "name": "Sao Francisco do Sul", "city": "São Francisco do Sul", "country": "Brazil", "lat": -26.2584, "lon": -48.6348, "province": "Santa Catarina"}, {"unlocode": "BRSPB", "name": "Porto de Itaguai", "city": "Porto de Itaguaí", "country": "Brazil", "lat": -22.92, "lon": -43.82, "province": "Rio de Janeiro"}, {"unlocode": "BRSSA", "name": "Salvador", "city": "Salvador", "country": "Brazil", "lat": -12.973, "lon": -38.5023, "province": "Bahia"}, {"unlocode": "BRSSO", "name": "Sao Sebastiao", "city": "São Sebastião", "country": "Brazil", "lat": -23.8063, "lon": -45.4017, "province": "São Paulo"}, {"unlocode": "BRSSZ", "name": "Santos", "city": "Santos", "country": "Brazil", "lat": -23.95, "lon": -46.33, "province": "São Paulo"}, {"unlocode": "BRSTM", "name": "Santarem", "city": "Santarem", "country": "Brazil", "lat": -2.4506, "lon": -54.7009, "province": "Pará"}, {"unlocode": "BRSUA", "name": "Suape", "city": "Suape", "country": "Brazil", "lat": -8.3537, "lon": -34.9576, "province": "Pernambuco"}, {"unlocode": "BRVDC", "name": "Vitoria da Conquista", "city": "Vitória da Conquista", "country": "Brazil", "lat": -14.85, "lon": -40.85, "province": "Bahia"}, {"unlocode": "BRVIC", "name": "Vila do Conde", "city": "Vila do Conde", "country": "Brazil", "lat": -7.27, "lon": -34.9, "province": "Paraíba"}, {"unlocode": "BRVIX", "name": "Vitoria", "city": "Vitoria", "country": "Brazil", "lat": -20.2976, "lon": -40.2958, "province": "Espírito Santo"}, {"unlocode": "BRVLC", "name": "Vila do Conde", "city": "Vila do Conde", "country": "Brazil", "lat": -1.53, "lon": -48.75, "province": "Pará"}, {"unlocode": "BSFPO", "name": "Freeport, Grand Bahama", "city": "Freeport, Grand Bahama", "country": "Bahamas", "lat": 26.5416, "lon": -78.6455, "province": "Freeport"}, {"unlocode": "BSNAS", "name": "Nassau", "city": "Nassau", "country": "Bahamas", "lat": 25.08, "lon": -77.35, "province": "New Providence"}, {"unlocode": "BYMSQ", "name": "Minsk", "city": "Minsk", "country": "Belarus", "lat": 53.9045, "lon": 27.5615, "province": ""}, {"unlocode": "BZBZE", "name": "Belize City", "city": "Belize City", "country": "Belize", "lat": 17.5046, "lon": -88.1962, "province": "Belize"}, {"unlocode": "CABAT", "name": "Bathurst", "city": "Bathurst", "country": "Canada", "lat": 47.6184, "lon": -65.6513, "province": "New Brunswick"}, {"unlocode": "CABCK", "name": "Brockville", "city": "Brockville", "country": "Canada", "lat": 44.5895, "lon": -75.6843, "province": "Ontario"}, {"unlocode": "CABDU", "name": "Baie d'Urfe", "city": "Baie d'Urfé", "country": "Canada", "lat": 45.4, "lon": -73.92, "province": "Quebec"}, {"unlocode": "CABEC", "name": "Becancour", "city": "Bécancour", "country": "Canada", "lat": 46.33, "lon": -72.43, "province": "Quebec"}, {"unlocode": "CABJO", "name": "Baie-Johan-Beetz", "city": "Baie-Johan-Beetz", "country": "Canada", "lat": 50.3, "lon": -62.83, "province": "Quebec"}, {"unlocode": "CABRL", "name": "Burlington", "city": "Burlington", "country": "Canada", "lat": 43.3255, "lon": -79.799, "province": "Ontario"}, {"unlocode": "CACAL", "name": "Calgary", "city": "Calgary", "country": "Canada", "lat": 51.03, "lon": -114.07, "province": "Alberta"}, {"unlocode": "CACBK", "name": "Corner Brook", "city": "Corner Brook", "country": "Canada", "lat": 48.95, "lon": -57.93, "province": "Newfoundland and Labrador"}, {"unlocode": "CACCB", "name": "Cowichan Bay", "city": "Cowichan Bay", "country": "Canada", "lat": 48.7373, "lon": -123.6216, "province": "British Columbia"}, {"unlocode": "CACOL", "name": "Collingwood", "city": "Collingwood", "country": "Canada", "lat": 44.5008, "lon": -80.2169, "province": "Ontario"}, {"unlocode": "CACRO", "name": "Crofton", "city": "Crofton", "country": "Canada", "lat": 48.8638, "lon": -123.6458, "province": "British Columbia"}, {"unlocode": "CACWL", "name": "Cornwall", "city": "Cornwall", "country": "Canada", "lat": 45.0213, "lon": -74.7303, "province": "Ontario"}, {"unlocode": "CADOR", "name": "Dorval", "city": "Dorval", "country": "Canada", "lat": 45.4503, "lon": -73.75, "province": "Quebec"}, {"unlocode": "CADRU", "name": "Drummondville", "city": "Drummondville", "country": "Canada", "lat": 45.8803, "lon": -72.4843, "province": "Quebec"}, {"unlocode": "CAEDM", "name": "Edmonton", "city": "Edmonton", "country": "Canada", "lat": 53.5444, "lon": -113.4909, "province": "Alberta"}, {"unlocode": "CAHAL", "name": "Halifax", "city": "Halifax", "country": "Canada", "lat": 44.6489, "lon": -63.5753, "province": "Nova Scotia"}, {"unlocode": "CAHAM", "name": "Hamilton", "city": "Hamilton", "country": "Canada", "lat": 43.25, "lon": -79.8661, "province": "Ontario"}, {"unlocode": "CAHMC", "name": "Harmac", "city": "Harmac", "country": "Canada", "lat": 49.13, "lon": -123.85, "province": "British Columbia"}, {"unlocode": "CAKVL", "name": "Kingsville", "city": "Kingsville", "country": "Canada", "lat": 42.0363, "lon": -82.739, "province": "Ontario"}, {"unlocode": "CAMAG", "name": "Magog", "city": "Magog", "country": "Canada", "lat": 45.2665, "lon": -72.148, "province": "Quebec"}, {"unlocode": "CAMNT", "name": "Moncton", "city": "Moncton", "country": "Canada", "lat": 46.0878, "lon": -64.7782, "province": "New Brunswick"}, {"unlocode": "CAMTR", "name": "Montreal", "city": "Montreal", "country": "Canada", "lat": 45.5017, "lon": -73.5673, "province": "Quebec"}, {"unlocode": "CANIA", "name": "Niagara Falls", "city": "Niagara Falls", "country": "Canada", "lat": 43.0896, "lon": -79.0849, "province": "Ontario"}, {"unlocode": "CANNO", "name": "Nanaimo", "city": "Nanaimo", "country": "Canada", "lat": 49.1659, "lon": -123.9401, "province": "British Columbia"}, {"unlocode": "CANOR", "name": "North Bay", "city": "North Bay", "country": "Canada", "lat": 46.3, "lon": -79.45, "province": "Ontario"}, {"unlocode": "CANWE", "name": "New Westminster", "city": "New Westminster", "country": "Canada", "lat": 49.2057, "lon": -122.911, "province": "British Columbia"}, {"unlocode": "CAOAK", "name": "Oakville", "city": "Oakville", "country": "Canada", "lat": 43.4675, "lon": -79.6877, "province": "Ontario"}, {"unlocode": "CAODE", "name": "Odessa", "city": "Odessa", "country": "Canada", "lat": 44.277, "lon": -76.7183, "province": "Ontario"}, {"unlocode": "CAOSH", "name": "Oshawa", "city": "Oshawa", "country": "Canada", "lat": 43.8971, "lon": -78.8658, "province": "Ontario"}, {"unlocode": "CAPCR", "name": "Port Credit", "city": "Port Credit", "country": "Canada", "lat": 43.5516, "lon": -79.5856, "province": "Ontario"}, {"unlocode": "CAPDV", "name": "Port Dover", "city": "Port Dover", "country": "Canada", "lat": 42.7865, "lon": -80.2033, "province": "Ontario"}, {"unlocode": "CAPML", "name": "Port Mellon", "city": "Port Mellon", "country": "Canada", "lat": 49.5217, "lon": -123.4881, "province": "British Columbia"}, {"unlocode": "CAPOI", "name": "Pointe-Claire", "city": "Pointe-Claire", "country": "Canada", "lat": 45.43, "lon": -73.73, "province": "Quebec"}, {"unlocode": "CAPRR", "name": "Prince Rupert", "city": "Prince Rupert", "country": "Canada", "lat": 54.315, "lon": -130.3208, "province": "British Columbia"}, {"unlocode": "CAQUE", "name": "Quebec", "city": "Quebec", "country": "Canada", "lat": 46.8033, "lon": -71.2428, "province": "Quebec"}, {"unlocode": "CASAK", "name": "Saskatoon", "city": "Saskatoon", "country": "Canada", "lat": 52.1332, "lon": -106.67, "province": "Saskatchewan"}, {"unlocode": "CASCA", "name": "Saint-Catharines", "city": "Saint-Catharines", "country": "Canada", "lat": 43.17, "lon": -79.23, "province": "Ontario"}, {"unlocode": "CASJB", "name": "Saint-John", "city": "Saint-John", "country": "Canada", "lat": 45.27, "lon": -66.07, "province": "New Brunswick"}, {"unlocode": "CASJF", "name": "Saint-John's", "city": "Saint-John's", "country": "Canada", "lat": 47.57, "lon": -52.73, "province": "Newfoundland and Labrador"}, {"unlocode": "CASNI", "name": "Sarnia", "city": "Sarnia", "country": "Canada", "lat": 42.9745, "lon": -82.4066, "province": "Ontario"}, {"unlocode": "CASOR", "name": "Sorel", "city": "Sorel", "country": "Canada", "lat": 46.0428, "lon": -73.1123, "province": "Quebec"}, {"unlocode": "CASSM", "name": "Sault-Sainte-Marie", "city": "Sault-Sainte-Marie", "country": "Canada", "lat": 46.5219, "lon": -84.3461, "province": "Ontario"}, {"unlocode": "CASTC", "name": "Stoney Creek", "city": "Stoney Creek", "country": "Canada", "lat": 43.2272, "lon": -79.7196, "province": "Ontario"}, {"unlocode": "CASUM", "name": "Summerside", "city": "Summerside", "country": "Canada", "lat": 46.3934, "lon": -63.7902, "province": "Prince Edward Island"}, {"unlocode": "CATEX", "name": "Texada Island", "city": "Texada Island", "country": "Canada", "lat": 49.6597, "lon": -124.4122, "province": "British Columbia"}, {"unlocode": "CATHU", "name": "Thunder Bay", "city": "Thunder Bay", "country": "Canada", "lat": 48.3809, "lon": -89.2477, "province": "Ontario"}, {"unlocode": "CATOR", "name": "Toronto", "city": "Toronto", "country": "Canada", "lat": 43.6532, "lon": -79.3832, "province": "Ontario"}, {"unlocode": "CATRR", "name": "Trois-Rivieres (Three Rivers)", "city": "Trois-Rivieres (Three Rivers)", "country": "Canada", "lat": 46.3592, "lon": -72.5475, "province": "Quebec"}, {"unlocode": "CATTC", "name": "Trenton", "city": "Trenton", "country": "Canada", "lat": 44.1011, "lon": -77.5763, "province": "Ontario"}, {"unlocode": "CAVAN", "name": "Vancouver", "city": "Vancouver", "country": "Canada", "lat": 49.2827, "lon": -123.1207, "province": "British Columbia"}, {"unlocode": "CAVLF", "name": "Valleyfield", "city": "Valleyfield", "country": "Canada", "lat": 45.25, "lon": -74.13, "province": "Quebec"}, {"unlocode": "CAWIN", "name": "Winona", "city": "Winona", "country": "Canada", "lat": 43.208, "lon": -79.6509, "province": "Ontario"}, {"unlocode": "CAWNP", "name": "Winnipeg", "city": "Winnipeg", "country": "Canada", "lat": 49.8998, "lon": -97.1375, "province": "Manitoba"}, {"unlocode": "CDBOA", "name": "Boma", "city": "Boma", "country": "Congo, The Democratic Republic of the", "lat": 13.0229, "lon": -5.8347, "province": ""}, {"unlocode": "CDMAT", "name": "Matadi", "city": "Matadi", "country": "Congo, The Democratic Republic of the", "lat": 13.451, "lon": -5.8238, "province": ""}, {"unlocode": "CGPNR", "name": "Pointe Noire", "city": "Pointe Noire", "country": "Congo", "lat": -4.7692, "lon": 11.8664, "province": "Kouilou"}, {"unlocode": "CIABJ", "name": "Abidjan", "city": "Abidjan", "country": "Côte d'Ivoire", "lat": 5.36, "lon": -4.0083, "province": "Lagunes"}, {"unlocode": "CISPY", "name": "San-Pedro", "city": "San-Pédro", "country": "Côte d'Ivoire", "lat": 4.73, "lon": -6.62, "province": "Bas-Sassandra (Région du)"}, {"unlocode": "CLANF", "name": "Antofagasta", "city": "Antofagasta", "country": "Chile", "lat": -23.63, "lon": -70.38, "province": "Antofagasta"}, {"unlocode": "CLARI", "name": "Arica", "city": "Arica", "country": "Chile", "lat": -18.48, "lon": -70.32, "province": "Arica y Parinacota"}, {"unlocode": "CLBAG", "name": "Bahia San Gregorio", "city": "Bahía San Gregorio", "country": "Chile", "lat": -52.62, "lon": -70.13, "province": "Magallanes"}, {"unlocode": "CLBAR", "name": "Barquito", "city": "Barquito", "country": "Chile", "lat": -26.35, "lon": -70.63, "province": "Atacama"}, {"unlocode": "CLCAP", "name": "San Vicente", "city": "San Vicente", "country": "Chile", "lat": 43.3813, "lon": -4.3971, "province": "CAP"}, {"unlocode": "CLCBC", "name": "Calbuco", "city": "Calbuco", "country": "Chile", "lat": -41.75, "lon": -73.13, "province": "Los Lagos"}, {"unlocode": "CLCCL", "name": "Caleta Coloso", "city": "Caleta Coloso", "country": "Chile", "lat": -18.435, "lon": -70.2937, "province": "Región de Arica y Parinacota"}, {"unlocode": "CLCHB", "name": "Chacabuco", "city": "Chacabuco", "country": "Chile", "lat": -45.48, "lon": -72.82, "province": "Aysén"}, {"unlocode": "CLCLD", "name": "Caldera", "city": "Caldera", "country": "Chile", "lat": -27.03, "lon": -70.8, "province": "Atacama"}, {"unlocode": "CLCNL", "name": "Coronel", "city": "Coronel", "country": "Chile", "lat": -37.02, "lon": -73.15, "province": "Biobío"}, {"unlocode": "CLCNR", "name": "Chanaral", "city": "Chañaral", "country": "Chile", "lat": -26.35, "lon": -70.62, "province": "Atacama"}, {"unlocode": "CLCNX", "name": "Cabo Negro", "city": "Cabo Negro", "country": "Chile", "lat": -52.97, "lon": -70.85, "province": "Magallanes"}, {"unlocode": "CLCQQ", "name": "Coquimbo", "city": "Coquimbo", "country": "Chile", "lat": -29.97, "lon": -71.33, "province": "Coquimbo"}, {"unlocode": "CLCRR", "name": "Corral", "city": "Corral", "country": "Chile", "lat": -39.87, "lon": -73.43, "province": "Los Lagos"}, {"unlocode": "CLDCH", "name": "Dalcahue", "city": "Dalcahue", "country": "Chile", "lat": -42.38, "lon": -73.67, "province": "Los Lagos"}, {"unlocode": "CLGYC", "name": "Guayacan", "city": "Guayacán", "country": "Chile", "lat": -29.98, "lon": -71.37, "province": "Coquimbo"}, {"unlocode": "CLHSO", "name": "Huasco", "city": "Huasco", "country": "Chile", "lat": -28.45, "lon": -71.22, "province": "Atacama"}, {"unlocode": "CLIPC", "name": "Isla de Pascua", "city": "Isla de Pascua", "country": "Chile", "lat": -27.15, "lon": -109.42, "province": "Valparaíso"}, {"unlocode": "CLIQQ", "name": "Iquique", "city": "Iquique", "country": "Chile", "lat": -20.22, "lon": -70.13, "province": "Tarapacá"}, {"unlocode": "CLJRL", "name": "Jureles", "city": "Jureles", "country": "Chile", "lat": -73.2265, "lon": -36.9721, "province": "Coronel Bay"}, {"unlocode": "CLLOS", "name": "Los Vilos", "city": "Los Vilos", "country": "Chile", "lat": -31.9, "lon": -71.5, "province": "Coquimbo"}, {"unlocode": "CLLQN", "name": "Lirquen", "city": "Lirquén", "country": "Chile", "lat": -36.7, "lon": -72.98, "province": "Biobío"}, {"unlocode": "CLLVS", "name": "Las Ventanas", "city": "Las Ventanas", "country": "Chile", "lat": -33.27, "lon": -71.65, "province": "Valparaíso"}, {"unlocode": "CLMCH", "name": "Michilla", "city": "Michilla", "country": "Chile", "lat": -22.7183, "lon": -70.2777, "province": "Región de Antofagasta"}, {"unlocode": "CLMJS", "name": "Mejillones", "city": "Mejillones", "country": "Chile", "lat": -23.1, "lon": -70.45, "province": "Antofagasta"}, {"unlocode": "CLPAG", "name": "Puerto Angamos", "city": "Puerto Angamos", "country": "Chile", "lat": -23.08, "lon": -70.45, "province": "Antofagasta"}, {"unlocode": "CLPCH", "name": "Puerto Chacabuco", "city": "Puerto Chacabuco", "country": "Chile", "lat": -45.48, "lon": -72.83, "province": "Aysén"}, {"unlocode": "CLPEO", "name": "Penco", "city": "Penco", "country": "Chile", "lat": -36.72, "lon": -72.98, "province": "Biobío"}, {"unlocode": "CLPGO", "name": "Punta Chungo", "city": "Punta Chungo", "country": "Chile", "lat": -71.5039, "lon": -31.8856, "province": ""}, {"unlocode": "CLPMC", "name": "Puerto Montt", "city": "Puerto Montt", "country": "Chile", "lat": -41.47, "lon": -72.95, "province": "Los Lagos"}, {"unlocode": "CLPNT", "name": "Puerto Natales", "city": "Puerto Natales", "country": "Chile", "lat": -51.72, "lon": -72.5, "province": "Magallanes"}, {"unlocode": "CLPPC", "name": "Punta Patache", "city": "Punta Patache", "country": "Chile", "lat": -20.82, "lon": -70.22, "province": ""}, {"unlocode": "CLPPD", "name": "Punta Padrones", "city": "Punta Padrones", "country": "Chile", "lat": -70.8419, "lon": -27.0523, "province": ""}, {"unlocode": "CLPTE", "name": "Quellon (Puerto Quellon)", "city": "Quellón (Puerto Quellón)", "country": "Chile", "lat": -43.1, "lon": -73.62, "province": "Los Lagos"}, {"unlocode": "CLPTI", "name": "Patillos", "city": "Patillos", "country": "Chile", "lat": -20.75, "lon": -70.18, "province": "Tarapacá"}, {"unlocode": "CLPUQ", "name": "Punta Arenas", "city": "Punta Arenas", "country": "Chile", "lat": -53.13, "lon": -70.93, "province": "Magallanes"}, {"unlocode": "CLQMC", "name": "Quemchi", "city": "Quemchi", "country": "Chile", "lat": -42.13, "lon": -73.48, "province": "Los Lagos"}, {"unlocode": "CLQTV", "name": "Quintero", "city": "Quintero", "country": "Chile", "lat": -32.77, "lon": -71.53, "province": "Valparaíso"}, {"unlocode": "CLSAI", "name": "San Antonio", "city": "San Antonio", "country": "Chile", "lat": -33.6, "lon": -71.6, "province": "Valparaíso"}, {"unlocode": "CLSVE", "name": "San Vicente", "city": "San Vicente", "country": "Chile", "lat": -36.7, "lon": -73.13, "province": "Biobío"}, {"unlocode": "CLTAL", "name": "Talcahuano", "city": "Talcahuano", "country": "Chile", "lat": -36.73, "lon": -73.12, "province": "Biobío"}, {"unlocode": "CLTHO", "name": "Talcahuano", "city": "Talcahuano", "country": "Chile", "lat": -36.7248, "lon": -73.117, "province": "Bío Bío Region"}, {"unlocode": "CLTOM", "name": "Tome", "city": "Tomé", "country": "Chile", "lat": -36.6, "lon": -72.95, "province": "Biobío"}, {"unlocode": "CLTOQ", "name": "Tocopilla", "city": "Tocopilla", "country": "Chile", "lat": -22.08, "lon": -70.18, "province": "Antofagasta"}, {"unlocode": "CLTTC", "name": "Taltal", "city": "Taltal", "country": "Chile", "lat": -25.4, "lon": -70.47, "province": "Antofagasta"}, {"unlocode": "CLVAP", "name": "Valparaiso", "city": "Valparaiso", "country": "Chile", "lat": -33.03, "lon": -71.63, "province": "Valparaíso"}, {"unlocode": "CLWCA", "name": "Castro", "city": "Castro", "country": "Chile", "lat": -42.47, "lon": -73.77, "province": "Los Lagos"}, {"unlocode": "CLWCH", "name": "Chaiten", "city": "Chaitén", "country": "Chile", "lat": -42.92, "lon": -72.7, "province": "Los Lagos"}, {"unlocode": "CLWPA", "name": "Puerto Aisen", "city": "Puerto Aisén", "country": "Chile", "lat": -45.38, "lon": -72.7, "province": "Aysén"}, {"unlocode": "CLWPU", "name": "Puerto Williams", "city": "Puerto Williams", "country": "Chile", "lat": -54.92, "lon": -67.62, "province": "Magallanes"}, {"unlocode": "CLZUD", "name": "Ancud", "city": "Ancud", "country": "Chile", "lat": -41.85, "lon": -73.83, "province": "Los Lagos"}, {"unlocode": "CMDLA", "name": "Douala", "city": "Douala", "country": "Cameroon", "lat": 4.0511, "lon": 9.7679, "province": "Littoral"}, {"unlocode": "CNBAY", "name": "Bayuquan", "city": "Bayuquan", "country": "China", "lat": 40.2306, "lon": 122.1078, "province": "Liaoning"}, {"unlocode": "CNBHY", "name": "Beihai Fucheng Apt", "city": "Beihai Fucheng Apt", "country": "China", "lat": 22.8155, "lon": 108.3275, "province": "Guangxi"}, {"unlocode": "CNBJO", "name": "Beijiao", "city": "Beijiao", "country": "China", "lat": 26.35, "lon": 119.92, "province": "Fujian"}, {"unlocode": "CNCAN", "name": "Guangzhou", "city": "Guangzhou", "country": "China", "lat": 23.1291, "lon": 113.2644, "province": "Guangdong"}, {"unlocode": "CNCGU", "name": "Changshu", "city": "Changshu", "country": "China", "lat": 31.6537, "lon": 120.7525, "province": "Jiangsu"}, {"unlocode": "CNCKG", "name": "Chongqing", "city": "Chongqing", "country": "China", "lat": 29.563, "lon": 106.5516, "province": "Chongqing"}, {"unlocode": "CNCOZ", "name": "Chaozhou Port", "city": "Chaozhou", "country": "China", "lat": 23.67, "lon": 116.63, "province": "Guangdong"}, {"unlocode": "CNCSX", "name": "Changsha", "city": "Changsha", "country": "China", "lat": 28.2282, "lon": 112.9388, "province": "Hunan"}, {"unlocode": "CNCTU", "name": "Chengdu", "city": "Chengdu", "country": "China", "lat": 30.5723, "lon": 104.0665, "province": "Sichuan"}, {"unlocode": "CNCWN", "name": "Chiwan Port", "city": "Chiwan", "country": "China", "lat": 22.48, "lon": 113.88, "province": "Guangdong"}, {"unlocode": "CNDAA", "name": "Dagang", "city": "Dagang", "country": "China", "lat": 33.1892, "lon": 120.1035, "province": "Jiangsu"}, {"unlocode": "CNDAL", "name": "Dalian", "city": "Dalian", "country": "China", "lat": 38.914, "lon": 121.6147, "province": "Liaoning"}, {"unlocode": "CNDGG", "name": "Dongguan Port", "city": "Dongguan", "country": "China", "lat": 23.0205, "lon": 113.7518, "province": "Guangdong"}, {"unlocode": "CNDLC", "name": "Dalian", "city": "Dalian", "country": "China", "lat": 38.914, "lon": 121.6147, "province": "Liaoning"}, {"unlocode": "CNDOU", "name": "Doumen Port", "city": "Doumen", "country": "China", "lat": 22.2, "lon": 113.28, "province": "Guangdong"}, {"unlocode": "CNFAN", "name": "Fangcheng Port", "city": "Fangcheng", "country": "China", "lat": 21.77, "lon": 108.35, "province": "Guangxi"}, {"unlocode": "CNFNG", "name": "Fuyong", "city": "Fuyong", "country": "China", "lat": 22.65, "lon": 113.78, "province": "Guangdong"}, {"unlocode": "CNFOS", "name": "Foshan", "city": "Foshanzhan", "country": "China", "lat": 23.03, "lon": 113.1, "province": "Guangdong"}, {"unlocode": "CNFUG", "name": "Fuqing", "city": "Fuqing", "country": "China", "lat": 25.7204, "lon": 119.3838, "province": "Fujian"}, {"unlocode": "CNGGY", "name": "Gongyi", "city": "Gongyi", "country": "China", "lat": 23.4033, "lon": 113.2184, "province": "Guangdong"}, {"unlocode": "CNGOG", "name": "Gongming", "city": "Gongming", "country": "China", "lat": 22.78, "lon": 113.87, "province": "Guangdong"}, {"unlocode": "CNGOM", "name": "Gaoming Port", "city": "Gaoming", "country": "China", "lat": 22.88, "lon": 112.83, "province": "Guangdong"}, {"unlocode": "CNGUG", "name": "Guigang", "city": "Guigang", "country": "China", "lat": 23.1, "lon": 109.6, "province": "Guangxi"}, {"unlocode": "CNHAK", "name": "Haikou", "city": "Haikou", "country": "China", "lat": 20.044, "lon": 110.1983, "province": "Hainan"}, {"unlocode": "CNHDU", "name": "Huadu", "city": "Huadu", "country": "China", "lat": 23.4, "lon": 113.22, "province": "Guangdong"}, {"unlocode": "CNHEB", "name": "Hebei", "city": "Hebei", "country": "China", "lat": 39.88, "lon": 115.27, "province": "Hebei"}, {"unlocode": "CNHGH", "name": "Hangzhou", "city": "Hangzhou", "country": "China", "lat": 30.2741, "lon": 120.1551, "province": "Zhejiang"}, {"unlocode": "CNHME", "name": "Haimen", "city": "Haimen", "country": "China", "lat": 32.1042, "lon": 121.4531, "province": "Zhejiang"}, {"unlocode": "CNHMN", "name": "Humen Port", "city": "Humen", "country": "China", "lat": 22.83, "lon": 113.67, "province": "Guangdong"}, {"unlocode": "CNHSN", "name": "Heshan Port", "city": "Heshan", "country": "China", "lat": 22.77, "lon": 112.95, "province": "Guangdong"}, {"unlocode": "CNHUA", "name": "Huangpu Port", "city": "Huangpu", "country": "China", "lat": 23.1069, "lon": 113.4597, "province": "Guangdong"}, {"unlocode": "CNHUD", "name": "Huludao Port", "city": "Huludao", "country": "China", "lat": 40.75, "lon": 120.85, "province": "Liaoning"}, {"unlocode": "CNHUI", "name": "Huizhou Port", "city": "Huizhou", "country": "China", "lat": 23.08, "lon": 114.37, "province": "Guangdong"}, {"unlocode": "CNJGZ", "name": "Jingzhou", "city": "Jingzhou", "country": "China", "lat": 30.35, "lon": 112.18, "province": "Hubei"}, {"unlocode": "CNJIA", "name": "Jiangyin Port", "city": "Jiangyin", "country": "China", "lat": 31.9, "lon": 120.28, "province": "Jiangsu"}, {"unlocode": "CNJIN", "name": "Jian", "city": "Jian", "country": "China", "lat": 27.12, "lon": 114.97, "province": "Jiangxi"}, {"unlocode": "CNJIU", "name": "Jiujiang Port", "city": "Jiujiang", "country": "China", "lat": 29.72, "lon": 115.97, "province": "Jiangxi"}, {"unlocode": "CNJMN", "name": "Jiangmen Port", "city": "Jiangmen", "country": "China", "lat": 22.58, "lon": 113.07, "province": "Guangdong"}, {"unlocode": "CNJNZ", "name": "Jinzhou Port", "city": "Jinzhou", "country": "China", "lat": 41.12, "lon": 121.15, "province": "Liaoning"}, {"unlocode": "CNJXN", "name": "Jiao Xin", "city": "Jiao Xin", "country": "China", "lat": 22.7025, "lon": 113.3137, "province": "Guangdong"}, {"unlocode": "CNJZU", "name": "Jiuzhou Port", "city": "Jiuzhou", "country": "China", "lat": 24.2886, "lon": 116.1222, "province": "Guangdong"}, {"unlocode": "CNKHN", "name": "Nanchang", "city": "Nanchang", "country": "China", "lat": 28.6829, "lon": 115.8582, "province": "Jiangxi"}, {"unlocode": "CNKMG", "name": "Kunming", "city": "Kunming", "country": "China", "lat": 24.8801, "lon": 102.8329, "province": "Yunnan"}, {"unlocode": "CNKPN", "name": "Kaiping", "city": "Kaiping", "country": "China", "lat": 39.7, "lon": 118.3, "province": "Hebei"}, {"unlocode": "CNLAN", "name": "Lanshi Port", "city": "Lanshi", "country": "China", "lat": 22.9702, "lon": 113.9816, "province": "Guangdong Sheng"}, {"unlocode": "CNLGH", "name": "Longhua", "city": "Longhua", "country": "China", "lat": 22.6396, "lon": 114.0209, "province": "Guangdong"}, {"unlocode": "CNLIH", "name": "Lianhuashan Port", "city": "Lianhuashan", "country": "China", "lat": 23.02, "lon": 115.27, "province": "Guangdong"}, {"unlocode": "CNLKU", "name": "Longkou Port", "city": "Longkou", "country": "China", "lat": 37.65, "lon": 120.35, "province": "Shandong"}, {"unlocode": "CNLSI", "name": "Lanshi", "city": "Lanshi", "country": "China", "lat": 26.15, "lon": 113.6, "province": "Hunan"}, {"unlocode": "CNLYG", "name": "Lianyungang", "city": "Lianyungang", "country": "China", "lat": 34.72, "lon": 119.43, "province": "Jiangsu"}, {"unlocode": "CNLZH", "name": "Liuzhou Port", "city": "Liuzhou", "country": "China", "lat": 23.32, "lon": 109.4, "province": "Guangxi"}, {"unlocode": "CNMAW", "name": "Mawei Port", "city": "Mawei", "country": "China", "lat": 25.98, "lon": 119.45, "province": "Fujian"}, {"unlocode": "CNMMI", "name": "Maoming", "city": "Maoming", "country": "China", "lat": 21.663, "lon": 110.9255, "province": "Guangdong"}, {"unlocode": "CNMWN", "name": "Mawan Port", "city": "Mawan", "country": "China", "lat": 22.45, "lon": 113.88, "province": "Guangdong"}, {"unlocode": "CNMYG", "name": "Mianyang", "city": "Mianyang", "country": "China", "lat": 31.5, "lon": 104.7, "province": "Sichuan"}, {"unlocode": "CNNAH", "name": "Nanhai Port", "city": "Nanhai", "country": "China", "lat": 23.02, "lon": 113.15, "province": "Guangdong"}, {"unlocode": "CNNBO", "name": "Ningbo", "city": "Ningbo", "country": "China", "lat": 29.8683, "lon": 121.544, "province": "Zhejiang"}, {"unlocode": "CNNGB", "name": "Ningbo", "city": "Ningbo", "country": "China", "lat": 29.8683, "lon": 121.544, "province": "Zhejiang"}, {"unlocode": "CNNGG", "name": "Nangang", "city": "Nangang", "country": "China", "lat": 23.0373, "lon": 113.2005, "province": "Guangdong"}, {"unlocode": "CNNKG", "name": "Nanjing", "city": "Nanjing", "country": "China", "lat": 32.0603, "lon": 118.7969, "province": "Jiangsu"}, {"unlocode": "CNNNG", "name": "Nanning", "city": "Nanning", "country": "China", "lat": 22.817, "lon": 108.3665, "province": "Guangxi"}, {"unlocode": "CNNSA", "name": "Nansha Port", "city": "Nansha", "country": "China", "lat": 22.75, "lon": 113.58, "province": "Guangdong"}, {"unlocode": "CNNTG", "name": "Nantong Port", "city": "Nantong", "country": "China", "lat": 32.02, "lon": 120.85, "province": "Jiangsu"}, {"unlocode": "CNPNY", "name": "Shiqiao", "city": "Shiqiao", "country": "China", "lat": 22.95, "lon": 113.37, "province": "Guangdong"}, {"unlocode": "CNPUT", "name": "Putian", "city": "Putian", "country": "China", "lat": 24.43, "lon": 119.02, "province": "Fujian"}, {"unlocode": "CNQAW", "name": "Qianwan", "city": "Qianwan", "country": "China", "lat": 36.05, "lon": 120.22, "province": "Shandong"}, {"unlocode": "CNQIN", "name": "Qingdao", "city": "Qingdao", "country": "China", "lat": 36.0671, "lon": 120.3826, "province": "Shandong"}, {"unlocode": "CNQYN", "name": "Qingyuan", "city": "Qingyuan", "country": "China", "lat": 23.6818, "lon": 113.056, "province": "Guangdong"}, {"unlocode": "CNQZJ", "name": "Quanzhou Port", "city": "Quanzhou", "country": "China", "lat": 24.93, "lon": 118.6, "province": "Fujian"}, {"unlocode": "CNROQ", "name": "Rongqi Port", "city": "Rongqi", "country": "China", "lat": 22.78, "lon": 113.27, "province": "Guangdong"}, {"unlocode": "CNRZH", "name": "Rizhao Port", "city": "Rizhao", "country": "China", "lat": 35.38, "lon": 119.53, "province": "Shandong"}, {"unlocode": "CNSBU", "name": "Sanbu Port", "city": "Sanbu", "country": "China", "lat": 22.3682, "lon": 112.7162, "province": "Guangdong"}, {"unlocode": "CNSDG", "name": "Shuidong Port", "city": "Shuidong", "country": "China", "lat": 21.52, "lon": 111, "province": "Guangdong"}, {"unlocode": "CNSGH", "name": "Shanghai", "city": "Shanghai", "country": "China", "lat": 31.2304, "lon": 121.4737, "province": "Shanghai"}, {"unlocode": "CNSHA", "name": "Shanghai", "city": "Shanghai", "country": "China", "lat": 31.2304, "lon": 121.4737, "province": "Shanghai"}, {"unlocode": "CNSHK", "name": "Shekou Port", "city": "Shekou", "country": "China", "lat": 22.48, "lon": 113.92, "province": "Guangdong"}, {"unlocode": "CNSHP", "name": "Qinhuangdao Port", "city": "Qinhuangdao", "country": "China", "lat": 39.92, "lon": 119.58, "province": "Hebei"}, {"unlocode": "CNSIN", "name": "Shatian", "city": "Shatian", "country": "China", "lat": 22.919, "lon": 113.6178, "province": "Guangdong"}, {"unlocode": "CNSJQ", "name": "Sanshui", "city": "Sanshui", "country": "China", "lat": 23.17, "lon": 112.87, "province": "Guangdong"}, {"unlocode": "CNSNW", "name": "Shenwan", "city": "Shenwan", "country": "China", "lat": 22.2815, "lon": 113.3641, "province": "Guangdong"}, {"unlocode": "CNSSH", "name": "Sanshan (Nanhai)", "city": "Sanshan (Nanhai)", "country": "China", "lat": 23.036, "lon": 113.2413, "province": "Guangdong Sheng"}, {"unlocode": "CNSUD", "name": "Shunde Port", "city": "Shunde", "country": "China", "lat": 22.83, "lon": 113.25, "province": "Guangdong"}, {"unlocode": "CNSWA", "name": "Jieyang Chaoshan Apt", "city": "Jieyang Chaoshan Apt", "country": "China", "lat": 23.1322, "lon": 113.2665, "province": "Guangdong"}, {"unlocode": "CNSWE", "name": "Shanwei Port", "city": "Shanwei", "country": "China", "lat": 22.78, "lon": 115.35, "province": "Guangdong"}, {"unlocode": "CNSZX", "name": "Shenzhen Baoan", "city": "Shenzhen Baoan", "country": "China", "lat": 22.5553, "lon": 113.884, "province": "Guangdong"}, {"unlocode": "CNTAG", "name": "Taicang", "city": "Taicang", "country": "China", "lat": 31.4577, "lon": 121.1305, "province": "Jiangsu"}, {"unlocode": "CNTAO", "name": "Qingdao", "city": "Qingdao", "country": "China", "lat": 36.0671, "lon": 120.3826, "province": "Shandong"}, {"unlocode": "CNTAP", "name": "Taiping", "city": "Taiping", "country": "China", "lat": 21.03, "lon": 110.17, "province": "Guangdong"}, {"unlocode": "CNTHG", "name": "Taicheng (Taishan)", "city": "Taicheng (Taishan)", "country": "China", "lat": 22.25, "lon": 112.78, "province": "Guangdong"}, {"unlocode": "CNTSN", "name": "Tianjin", "city": "Tianjin", "country": "China", "lat": 39.0842, "lon": 117.201, "province": "Tianjin"}, {"unlocode": "CNTXG", "name": "Tianjin New Port", "city": "Tianjin New", "country": "China", "lat": 38.98, "lon": 117.7, "province": "Tianjin"}, {"unlocode": "CNTZO", "name": "Taizhou", "city": "Taizhou", "country": "China", "lat": 32.48, "lon": 119.9, "province": "Jiangsu"}, {"unlocode": "CNWAZ", "name": "Wanzai", "city": "Wanzai", "country": "China", "lat": 22.18, "lon": 113.52, "province": "Guangdong"}, {"unlocode": "CNWEI", "name": "Weihai", "city": "Weihai", "country": "China", "lat": 37.52, "lon": 122.12, "province": "Shandong"}, {"unlocode": "CNWHI", "name": "Wuhu Port", "city": "Wuhu", "country": "China", "lat": 31.32, "lon": 118.37, "province": "Anhui"}, {"unlocode": "CNWNZ", "name": "Wenzhou", "city": "Wenzhou", "country": "China", "lat": 27.9943, "lon": 120.6994, "province": "Zhejiang"}, {"unlocode": "CNWUH", "name": "Wuhan", "city": "Wuhan", "country": "China", "lat": 30.5931, "lon": 114.3054, "province": "Hubei"}, {"unlocode": "CNXAB", "name": "Xinfeng", "city": "Xinfeng", "country": "China", "lat": 24.0598, "lon": 114.2069, "province": "Guangdong"}, {"unlocode": "CNXAM", "name": "Xiamen", "city": "Xiamen", "country": "China", "lat": 24.4798, "lon": 118.0894, "province": "Fujian"}, {"unlocode": "CNXGA", "name": "Xingang", "city": "Xingang", "country": "China", "lat": 39.0065, "lon": 117.6849, "province": "Tianjin"}, {"unlocode": "CNXGG", "name": "Xingang", "city": "Xingang", "country": "China", "lat": 39.0065, "lon": 117.6849, "province": "Tianjin"}, {"unlocode": "CNXIL", "name": "Xiaolan", "city": "Xiaolan", "country": "China", "lat": 22.6714, "lon": 113.2514, "province": "Guangdong"}, {"unlocode": "CNXIN", "name": "Xinhui Port", "city": "Xinhui", "country": "China", "lat": 22.53, "lon": 113.02, "province": "Guangdong"}, {"unlocode": "CNXIT", "name": "Xintang Port", "city": "Xintang", "country": "China", "lat": 23.12, "lon": 113.62, "province": "Guangdong"}, {"unlocode": "CNXMN", "name": "Xiamen", "city": "Xiamen", "country": "China", "lat": 24.4798, "lon": 118.0894, "province": "Fujian"}, {"unlocode": "CNYAN", "name": "Yangshan", "city": "Yangshan", "country": "China", "lat": 29.4767, "lon": 121.8693, "province": "Zhejiang"}, {"unlocode": "CNYIC", "name": "Yichang", "city": "Yichang", "country": "China", "lat": 30.7, "lon": 111.28, "province": "Hubei"}, {"unlocode": "CNYIK", "name": "Yingkou Port", "city": "Yingkou", "country": "China", "lat": 40.65, "lon": 122.22, "province": "Liaoning"}, {"unlocode": "CNYJI", "name": "Yangjiang Port", "city": "Yangjiang", "country": "China", "lat": 21.83, "lon": 111.97, "province": "Guangdong"}, {"unlocode": "CNYNF", "name": "Yunfu", "city": "Yunfu", "country": "China", "lat": 22.9151, "lon": 112.0445, "province": "Guangdong"}, {"unlocode": "CNYNT", "name": "Yantai", "city": "Yantai", "country": "China", "lat": 37.4638, "lon": 121.4479, "province": "Shandong"}, {"unlocode": "CNYPG", "name": "Yangpu Port", "city": "Yangpu", "country": "China", "lat": 19.7, "lon": 109.2, "province": "Hainan"}, {"unlocode": "CNYQS", "name": "Beijiao", "city": "Beijiao", "country": "China", "lat": 22.9283, "lon": 113.2072, "province": "Guangdong"}, {"unlocode": "CNYTG", "name": "Yantai", "city": "Yantai", "country": "China", "lat": 37.4638, "lon": 121.4479, "province": "Shandong"}, {"unlocode": "CNYTN", "name": "Yantian Port", "city": "Yantian", "country": "China", "lat": 26.85, "lon": 119.87, "province": "Guangdong"}, {"unlocode": "CNYZH", "name": "Yangzhou Port", "city": "Yangzhou", "country": "China", "lat": 32.38, "lon": 119.43, "province": "Jiangsu"}, {"unlocode": "CNZAP", "name": "Zhapu (Zhejiang)", "city": "Zhapu (Zhejiang)", "country": "China", "lat": 30.6035, "lon": 121.0956, "province": "Zhejiang"}, {"unlocode": "CNZHA", "name": "Zhanjiang Potou Apt", "city": "Zhanjiang Potou Apt", "country": "China", "lat": 23.1322, "lon": 113.2665, "province": "Guangdong"}, {"unlocode": "CNZHE", "name": "Zhenjiang Port", "city": "Zhenjiang", "country": "China", "lat": 32.18, "lon": 119.45, "province": "Jiangsu"}, {"unlocode": "CNZJG", "name": "Zhangjiagang", "city": "Zhangjiagang", "country": "China", "lat": 31.87, "lon": 120.53, "province": "Jiangsu"}, {"unlocode": "CNZOS", "name": "Zhoushan Port", "city": "Zhoushan", "country": "China", "lat": 29.9853, "lon": 122.2072, "province": "Zhejiang"}, {"unlocode": "CNZQG", "name": "Zhaoqing Port", "city": "Zhaoqing", "country": "China", "lat": 23.05, "lon": 112.45, "province": "Guangdong"}, {"unlocode": "CNZSN", "name": "Zhongshan Port", "city": "Zhongshan", "country": "China", "lat": 22.52, "lon": 113.37, "province": "Guangdong"}, {"unlocode": "CNZUH", "name": "Zhuhai Port", "city": "Zhuhai", "country": "China", "lat": 22.28, "lon": 113.57, "province": "Guangdong"}, {"unlocode": "COBAQ", "name": "Barranquilla", "city": "Barranquilla", "country": "Colombia", "lat": 11.0041, "lon": -74.807, "province": "Atlantico"}, {"unlocode": "COBUN", "name": "Buenaventura", "city": "Buenaventura", "country": "Colombia", "lat": 3.883, "lon": -77.0197, "province": "Valle del Cauca"}, {"unlocode": "COCTG", "name": "Cartagena", "city": "Cartagena", "country": "Colombia", "lat": 10.391, "lon": -75.4794, "province": "Bolívar"}, {"unlocode": "COPBO", "name": "Puerto Bolivar", "city": "Puerto Bolívar", "country": "Colombia", "lat": 10.68, "lon": -74.73, "province": "La Guajira"}, {"unlocode": "COSMR", "name": "Santa Marta", "city": "Santa Marta", "country": "Colombia", "lat": 11.2404, "lon": -74.211, "province": "Magdalena"}, {"unlocode": "COTCO", "name": "Tumaco", "city": "Tumaco", "country": "Colombia", "lat": 1.8001, "lon": -78.8021, "province": "Narino"}, {"unlocode": "CRCAL", "name": "Caldera", "city": "Caldera", "country": "Costa Rica", "lat": 9.95, "lon": -84.72, "province": "Puntarenas"}, {"unlocode": "CRGLF", "name": "Golfito", "city": "Golfito", "country": "Costa Rica", "lat": 8.65, "lon": -83.15, "province": "Puntarenas"}, {"unlocode": "CRLIO", "name": "Puerto Limon", "city": "Puerto Limón", "country": "Costa Rica", "lat": 10, "lon": -83.03, "province": "Limón"}, {"unlocode": "CRMOB", "name": "Moin", "city": "Moín", "country": "Costa Rica", "lat": 10, "lon": -83.08, "province": "Limón"}, {"unlocode": "CRPAS", "name": "Puntarenas", "city": "Puntarenas", "country": "Costa Rica", "lat": 9.97, "lon": -84.83, "province": "Puntarenas"}, {"unlocode": "CRPCA", "name": "Puerto Caldera", "city": "Puerto Caldera", "country": "Costa Rica", "lat": 9.9329, "lon": -84.0869, "province": "San Jose"}, {"unlocode": "CRSJO", "name": "San Jose", "city": "San José", "country": "Costa Rica", "lat": 9.93, "lon": -84.08, "province": "San José"}, {"unlocode": "CUHAV", "name": "La Habana", "city": "La Habana", "country": "Cuba", "lat": 23.12, "lon": -82.35, "province": "Ciudad de La Habana"}, {"unlocode": "CUMAR", "name": "Mariel", "city": "Mariel", "country": "Cuba", "lat": 23, "lon": -82.75, "province": "Artemisa Province"}, {"unlocode": "CUQMA", "name": "Matanzas", "city": "Matanzas", "country": "Cuba", "lat": 22.5767, "lon": -81.3399, "province": "Matanzas"}, {"unlocode": "CUSCU", "name": "Santiago de Cuba", "city": "Santiago de Cuba", "country": "Cuba", "lat": 20.0169, "lon": -75.8302, "province": "Santiago de Cuba"}, {"unlocode": "CVMIN", "name": "Mindelo", "city": "Mindelo", "country": "Cape Verde", "lat": 16.88, "lon": -25, "province": "São Vicente"}, {"unlocode": "CVPAL", "name": "Palmeira", "city": "Palmeira", "country": "Cape Verde", "lat": 16.7583, "lon": -22.9789, "province": "Sal"}, {"unlocode": "CVRAI", "name": "Praia", "city": "Praia", "country": "Cape Verde", "lat": 14.933, "lon": -23.5133, "province": "Praia"}, {"unlocode": "CYLMS", "name": "Limassol", "city": "Limassol", "country": "Cyprus", "lat": 34.68, "lon": 33.05, "province": "Lemesos"}, {"unlocode": "CYNIC", "name": "Nicosia", "city": "Nicosia", "country": "Cyprus", "lat": 35.17, "lon": 33.37, "province": "Lefkosia"}, {"unlocode": "CYPFO", "name": "Paphos", "city": "Paphos", "country": "Cyprus", "lat": 34.77, "lon": 32.42, "province": "Pafos"}, {"unlocode": "DEBEZ", "name": "Bahlingen", "city": "Bahlingen", "country": "Germany", "lat": 48.1214, "lon": 7.7425, "province": "Baden-Württemberg"}, {"unlocode": "DEBIN", "name": "Bingen am Rhein", "city": "Bingen am Rhein", "country": "Germany", "lat": 49.97, "lon": 7.88, "province": "Rheinland-Pfalz"}, {"unlocode": "DEBKE", "name": "Brake", "city": "Brake", "country": "Germany", "lat": 53.33, "lon": 8.48, "province": "Niedersachsen"}, {"unlocode": "DEBOY", "name": "Bad Oeynhausen", "city": "Bad Oeynhausen", "country": "Germany", "lat": 52.2085, "lon": 8.801, "province": "Nordrhein-Westfalen"}, {"unlocode": "DEBRA", "name": "Bramel", "city": "Bramel", "country": "Germany", "lat": 53.55, "lon": 8.7, "province": "Niedersachsen"}, {"unlocode": "DEBRB", "name": "Brunsbuttel", "city": "Brunsbüttel", "country": "Germany", "lat": 53.8989, "lon": 9.1339, "province": "Schleswig-Holstein"}, {"unlocode": "DEBRE", "name": "Bremen", "city": "Bremen", "country": "Germany", "lat": 53.0793, "lon": 8.8017, "province": "Bremen"}, {"unlocode": "DEBRV", "name": "Bremerhaven", "city": "Bremerhaven", "country": "Germany", "lat": 53.5396, "lon": 8.5809, "province": "Bremen"}, {"unlocode": "DEBSK", "name": "Burgstaaken/Fehmarn", "city": "Burgstaaken/Fehmarn", "country": "Germany", "lat": 54.4192, "lon": 11.1925, "province": "Schleswig-Holstein"}, {"unlocode": "DECGN", "name": "Koln", "city": "Köln", "country": "Germany", "lat": 50.95, "lon": 6.93, "province": "Nordrhein-Westfalen"}, {"unlocode": "DECUX", "name": "Cuxhaven", "city": "Cuxhaven", "country": "Germany", "lat": 53.88, "lon": 8.7, "province": "Niedersachsen"}, {"unlocode": "DEDUS", "name": "Dusseldorf", "city": "Düsseldorf", "country": "Germany", "lat": 51.23, "lon": 6.78, "province": "Nordrhein-Westfalen"}, {"unlocode": "DEELS", "name": "Elsfleth", "city": "Elsfleth", "country": "Germany", "lat": 53.23, "lon": 8.47, "province": "Niedersachsen"}, {"unlocode": "DEEME", "name": "Emden", "city": "Emden", "country": "Germany", "lat": 53.37, "lon": 7.22, "province": "Niedersachsen"}, {"unlocode": "DEFLF", "name": "Flensburg", "city": "Flensburg", "country": "Germany", "lat": 54.7937, "lon": 9.447, "province": "Schleswig-Holstein"}, {"unlocode": "DEHAM", "name": "Hamburg", "city": "Hamburg", "country": "Germany", "lat": 53.5511, "lon": 9.9937, "province": "Hamburg"}, {"unlocode": "DEHBU", "name": "Harburg", "city": "Harburg", "country": "Germany", "lat": 53.4608, "lon": 9.9834, "province": "Hamburg"}, {"unlocode": "DEHMM", "name": "Hamm", "city": "Hamm", "country": "Germany", "lat": 51.68, "lon": 7.8, "province": "Nordrhein-Westfalen"}, {"unlocode": "DEKEL", "name": "Kiel", "city": "Kiel", "country": "Germany", "lat": 54.33, "lon": 10.13, "province": "Schleswig-Holstein"}, {"unlocode": "DEKGU", "name": "Kriegenbrunn", "city": "Kriegenbrunn", "country": "Germany", "lat": 49.5564, "lon": 10.9557, "province": "Bayern"}, {"unlocode": "DEKHO", "name": "Kochendorf", "city": "Kochendorf", "country": "Germany", "lat": 49.2178, "lon": 9.2116, "province": "Baden-Württemberg"}, {"unlocode": "DELBC", "name": "Lubeck", "city": "Lübeck", "country": "Germany", "lat": 53.8655, "lon": 10.6866, "province": "Schleswig-Holstein"}, {"unlocode": "DELEE", "name": "Leer", "city": "Leer", "country": "Germany", "lat": 53.2357, "lon": 7.4679, "province": "Niedersachsen"}, {"unlocode": "DEMHG", "name": "Mannheim", "city": "Mannheim", "country": "Germany", "lat": 49.48, "lon": 8.45, "province": "Baden-Württemberg"}, {"unlocode": "DENHA", "name": "Nordenham", "city": "Nordenham", "country": "Germany", "lat": 53.5, "lon": 8.48, "province": "Niedersachsen"}, {"unlocode": "DENOR", "name": "Nordstrand", "city": "Nordstrand", "country": "Germany", "lat": 54.5109, "lon": 8.9247, "province": "Schleswig-Holstein"}, {"unlocode": "DEPFR", "name": "Pfronten", "city": "Pfronten", "country": "Germany", "lat": 47.5766, "lon": 10.5264, "province": "Bayern"}, {"unlocode": "DERSK", "name": "Rostock", "city": "Rostock", "country": "Germany", "lat": 54.08, "lon": 12.13, "province": "Mecklenburg-Vorpommern"}, {"unlocode": "DEWED", "name": "Wedel", "city": "Wedel", "country": "Germany", "lat": 53.5824, "lon": 9.7137, "province": "Schleswig-Holstein"}, {"unlocode": "DEWOR", "name": "Worms", "city": "Worms", "country": "Germany", "lat": 49.6341, "lon": 8.3507, "province": "Rheinland-Pfalz"}, {"unlocode": "DEWVN", "name": "Wilhelmshaven", "city": "Wilhelmshaven", "country": "Germany", "lat": 53.52, "lon": 8.13, "province": "Niedersachsen"}, {"unlocode": "DJJIB", "name": "Djibouti", "city": "Djibouti", "country": "Djibouti", "lat": 11.5721, "lon": 43.1456, "province": "Djibouti"}, {"unlocode": "DJPOD", "name": "Djibouti", "city": "Djibouti", "country": "Djibouti", "lat": 11.5721, "lon": 43.1456, "province": "Djibouti"}, {"unlocode": "DKAAL", "name": "Aalborg", "city": "Aalborg", "country": "Denmark", "lat": 57.0488, "lon": 9.9217, "province": "North Denmark Region"}, {"unlocode": "DKAAR", "name": "Aarhus", "city": "Aarhus", "country": "Denmark", "lat": 56.15, "lon": 10.22, "province": "Midtjylland"}, {"unlocode": "DKASN", "name": "Assens", "city": "Assens", "country": "Denmark", "lat": 55.2702, "lon": 9.9008, "province": "Region Syddanmark"}, {"unlocode": "DKCPH", "name": "Kobenhavn", "city": "København", "country": "Denmark", "lat": 55.67, "lon": 12.58, "province": "Hovedstaden"}, {"unlocode": "DKEBJ", "name": "Esbjerg", "city": "Esbjerg", "country": "Denmark", "lat": 55.4765, "lon": 8.4594, "province": "Region Syddanmark"}, {"unlocode": "DKFRC", "name": "Fredericia", "city": "Fredericia", "country": "Denmark", "lat": 55.5689, "lon": 9.7495, "province": "Region Syddanmark"}, {"unlocode": "DKHIR", "name": "Hirtshals", "city": "Hirtshals", "country": "Denmark", "lat": 57.587, "lon": 9.9668, "province": "North Denmark Region"}, {"unlocode": "DKHLS", "name": "Helsingor", "city": "Helsingør", "country": "Denmark", "lat": 56.0308, "lon": 12.5921, "province": "Capital Region of Denmark"}, {"unlocode": "DKHSB", "name": "Holstebro", "city": "Holstebro", "country": "Denmark", "lat": 56.3615, "lon": 8.6217, "province": "Central Denmark Region"}, {"unlocode": "DKKAL", "name": "Kalundborg", "city": "Kalundborg", "country": "Denmark", "lat": 55.6864, "lon": 11.0892, "province": "Region Zealand"}, {"unlocode": "DKKTD", "name": "Kerteminde", "city": "Kerteminde", "country": "Denmark", "lat": 55.4559, "lon": 10.655, "province": "Region Syddanmark"}, {"unlocode": "DKNBG", "name": "Nyborg", "city": "Nyborg", "country": "Denmark", "lat": 55.3242, "lon": 10.7996, "province": "Region Syddanmark"}, {"unlocode": "DKODE", "name": "Odense", "city": "Odense", "country": "Denmark", "lat": 55.4038, "lon": 10.4024, "province": "Region Syddanmark"}, {"unlocode": "DKRUG", "name": "Rungsted", "city": "Rungsted", "country": "Denmark", "lat": 55.88, "lon": 12.52, "province": "Hovedstaden"}, {"unlocode": "DKSKA", "name": "Skagen", "city": "Skagen", "country": "Denmark", "lat": 57.725, "lon": 10.5792, "province": "North Denmark Region"}, {"unlocode": "DKSVE", "name": "Svendborg", "city": "Svendborg", "country": "Denmark", "lat": 55.0674, "lon": 10.6073, "province": "Region Syddanmark"}, {"unlocode": "DMRSU", "name": "Roseau", "city": "Roseau", "country": "Dominica", "lat": 15.3092, "lon": -61.3794, "province": "Saint George Parish"}, {"unlocode": "DOCAU", "name": "Caucedo", "city": "Caucedo", "country": "Dominican Republic", "lat": 18.42, "lon": -69.63, "province": "Distrito Nacional (Santo Domingo)"}, {"unlocode": "DOHAI", "name": "Rio Haina", "city": "Rio Haina", "country": "Dominican Republic", "lat": 18.5133, "lon": -70.0731, "province": "Santo Domingo"}, {"unlocode": "DOMAN", "name": "Manzanillo", "city": "Manzanillo", "country": "Dominican Republic", "lat": 19.7, "lon": -71.75, "province": "Monte Cristi"}, {"unlocode": "DOPOP", "name": "Puerto Plata", "city": "Puerto Plata", "country": "Dominican Republic", "lat": 19.7808, "lon": -70.6871, "province": "Puerto Plata"}, {"unlocode": "DOSDQ", "name": "Santo Domingo", "city": "Santo Domingo", "country": "Dominican Republic", "lat": 18.47, "lon": -69.9, "province": "Distrito Nacional (Santo Domingo)"}, {"unlocode": "DOSPM", "name": "San Pedro de Macoris", "city": "San Pedro de Macorís", "country": "Dominican Republic", "lat": 18.45, "lon": -69.3, "province": "San Pedro de Macoris"}, {"unlocode": "DZAAE", "name": "Annaba (ex Bone)", "city": "Annaba (ex Bone)", "country": "Algeria", "lat": 7.6741, "lon": 36.9179, "province": ""}, {"unlocode": "DZALG", "name": "Alger (Algiers)", "city": "Alger (Algiers)", "country": "Algeria", "lat": 36.75, "lon": 3.05, "province": "Alger"}, {"unlocode": "DZBJA", "name": "Bejaia (ex Bougie)", "city": "Bejaia (ex Bougie)", "country": "Algeria", "lat": 36.7509, "lon": 5.0567, "province": "Béjaïa"}, {"unlocode": "DZGHA", "name": "Ghardaia", "city": "Ghardaïa", "country": "Algeria", "lat": 32.48, "lon": 3.67, "province": "Ghardaïa Province"}, {"unlocode": "DZMOS", "name": "Mostaganem", "city": "Mostaganem", "country": "Algeria", "lat": 36.0131, "lon": 0.1401, "province": "Mostaganem"}, {"unlocode": "DZORN", "name": "Oran", "city": "Oran", "country": "Algeria", "lat": 35.6977, "lon": -0.6337, "province": "Oran"}, {"unlocode": "DZSKI", "name": "Skikda (ex Philippeville)", "city": "Skikda (ex Philippeville)", "country": "Algeria", "lat": 36.8715, "lon": 6.9102, "province": ""}, {"unlocode": "ECBHA", "name": "Bahia de Caraquez", "city": "Bahía de Caráquez", "country": "Ecuador", "lat": -0.55, "lon": -80.5, "province": "Manabí"}, {"unlocode": "ECCHA", "name": "Chanduy", "city": "Chanduy", "country": "Ecuador", "lat": -2.42, "lon": -80.67, "province": "Guayas"}, {"unlocode": "ECESM", "name": "Esmeraldas", "city": "Esmeraldas", "country": "Ecuador", "lat": 0.98, "lon": -79.7, "province": "Esmeraldas"}, {"unlocode": "ECGYE", "name": "Guayaquil", "city": "Guayaquil", "country": "Ecuador", "lat": -2.17, "lon": -79.9, "province": "Guayas"}, {"unlocode": "ECLLD", "name": "La Libertad", "city": "La Libertad", "country": "Ecuador", "lat": -2.23, "lon": -80.9, "province": "Guayas"}, {"unlocode": "ECMEC", "name": "Manta", "city": "Manta", "country": "Ecuador", "lat": -0.95, "lon": -80.73, "province": "Manabí"}, {"unlocode": "ECMTV", "name": "Monteverde", "city": "Monteverde", "country": "Ecuador", "lat": -2.03, "lon": -80.72, "province": "Santa Elena"}, {"unlocode": "ECPBO", "name": "Puerto Bolivar", "city": "Puerto Bolívar", "country": "Ecuador", "lat": -3.27, "lon": -79.98, "province": "El Oro"}, {"unlocode": "EEHLD", "name": "Haldi", "city": "Haldi", "country": "Estonia", "lat": 58.8094, "lon": 22.4659, "province": "Hiiumaa"}, {"unlocode": "EEMUG", "name": "Muuga", "city": "Muuga", "country": "Estonia", "lat": 59.5, "lon": 24.97, "province": "Harjumaa"}, {"unlocode": "EETLL", "name": "Tallinn", "city": "Tallinn", "country": "Estonia", "lat": 59.43, "lon": 24.73, "province": "Harjumaa"}, {"unlocode": "EGAIS", "name": "Ain Sukhna", "city": "Ain Sukhna", "country": "Egypt", "lat": 29.6326, "lon": 32.33, "province": "Suez Governorate"}, {"unlocode": "EGALY", "name": "El Iskandariya (Alexandria)", "city": "El Iskandariya (Alexandria)", "country": "Egypt", "lat": 31.3091, "lon": 30.0626, "province": "Alexandria Governorate"}, {"unlocode": "EGDAM", "name": "Dumyat (Damietta)", "city": "Dumyat (Damietta)", "country": "Egypt", "lat": 31.42, "lon": 31.82, "province": "Damietta Governorate"}, {"unlocode": "EGEDK", "name": "El Dekheila", "city": "El Dekheila", "country": "Egypt", "lat": 30.7052, "lon": 30.7716, "province": "El Beheira Governorate"}, {"unlocode": "EGPSD", "name": "Port Said", "city": "Port Said", "country": "Egypt", "lat": 31.2653, "lon": 32.3019, "province": "Port Said Governorate"}, {"unlocode": "EGSOK", "name": "Sokhna Port", "city": "Sokhna", "country": "Egypt", "lat": 29.65, "lon": 32.35, "province": ""}, {"unlocode": "EGSUZ", "name": "As Suways (Suez)", "city": "As Suways (Suez)", "country": "Egypt", "lat": 29.97, "lon": 32.52, "province": "As Suways"}, {"unlocode": "ERASA", "name": "Assab", "city": "Assab", "country": "Eritrea", "lat": 13, "lon": 42.73, "province": "Debubawi K’eyyih Bahri"}, {"unlocode": "ERMSW", "name": "Massawa (Mitsiwa)", "city": "Massawa (Mitsiwa)", "country": "Eritrea", "lat": 15.6, "lon": 39.45, "province": "Semienawi K’eyyih Bahri"}, {"unlocode": "ESACE", "name": "Lanzarote", "city": "Lanzarote", "country": "Spain", "lat": 28.97, "lon": -13.53, "province": "Las Palmas"}, {"unlocode": "ESAGP", "name": "Malaga", "city": "Málaga", "country": "Spain", "lat": 36.72, "lon": -4.42, "province": "Andalusia"}, {"unlocode": "ESALC", "name": "Alicante", "city": "Alicante", "country": "Spain", "lat": 38.346, "lon": -0.4907, "province": "Valencian Community"}, {"unlocode": "ESALG", "name": "Algeciras", "city": "Algeciras", "country": "Spain", "lat": 36.1408, "lon": -5.4562, "province": "Andalusia"}, {"unlocode": "ESAVS", "name": "Aviles", "city": "Aviles", "country": "Spain", "lat": 43.558, "lon": -5.9247, "province": "Asturias"}, {"unlocode": "ESBCN", "name": "Barcelona", "city": "Barcelona", "country": "Spain", "lat": 41.3851, "lon": 2.1734, "province": "Catalonia"}, {"unlocode": "ESBIO", "name": "Bilbao", "city": "Bilbao", "country": "Spain", "lat": 43.25, "lon": -2.97, "province": "Biskaia"}, {"unlocode": "ESBRM", "name": "Bermeo", "city": "Bermeo", "country": "Spain", "lat": 43.43, "lon": -2.72, "province": "Biskaia"}, {"unlocode": "ESCAD", "name": "Cadiz", "city": "Cadiz", "country": "Spain", "lat": 36.5271, "lon": -6.2886, "province": "Andalusia"}, {"unlocode": "ESCAR", "name": "Cartagena", "city": "Cartagena", "country": "Spain", "lat": 37.6257, "lon": -0.9966, "province": "Región de Murcia"}, {"unlocode": "ESCAS", "name": "Castellon de la Plana", "city": "Castellón de la Plana", "country": "Spain", "lat": 39.98, "lon": -0.03, "province": "Valencia / València"}, {"unlocode": "ESCEU", "name": "Ceuta", "city": "Ceuta", "country": "Spain", "lat": 35.8894, "lon": -5.3213, "province": "Ceuta"}, {"unlocode": "ESFER", "name": "Ferez", "city": "Ferez", "country": "Spain", "lat": 38.35, "lon": -2, "province": "Albacete"}, {"unlocode": "ESFUE", "name": "Puerto del Rosario-Fuerteventura", "city": "Puerto del Rosario-Fuerteventura", "country": "Spain", "lat": 28.5008, "lon": -13.8628, "province": "Canarias"}, {"unlocode": "ESGIJ", "name": "Gijon", "city": "Gijón", "country": "Spain", "lat": 43.53, "lon": -5.67, "province": "Asturias"}, {"unlocode": "ESHUV", "name": "Huelva", "city": "Huelva", "country": "Spain", "lat": 37.2614, "lon": -6.9447, "province": "Andalucía"}, {"unlocode": "ESIBZ", "name": "Ibiza", "city": "Ibiza", "country": "Spain", "lat": 38.9, "lon": 1.43, "province": "Balears [Baleares]"}, {"unlocode": "ESLCG", "name": "La Coruna (A Coruna)", "city": "La Coruña (A Coruña)", "country": "Spain", "lat": 43.37, "lon": -8.38, "province": "A Coruña [La Coruña]"}, {"unlocode": "ESLEI", "name": "Almeria", "city": "Almería", "country": "Spain", "lat": 36.83, "lon": -2.45, "province": "Almería"}, {"unlocode": "ESLPA", "name": "Las Palmas de Gran Canaria", "city": "Las Palmas de Gran Canaria", "country": "Spain", "lat": 28.1, "lon": -15.42, "province": "Las Palmas"}, {"unlocode": "ESMAD", "name": "Madrid", "city": "Madrid", "country": "Spain", "lat": 40.4168, "lon": -3.7038, "province": "Community of Madrid"}, {"unlocode": "ESMAH", "name": "Mahon, Menorca", "city": "Mahón, Menorca", "country": "Spain", "lat": 39.88, "lon": 4.25, "province": "Balears [Baleares]"}, {"unlocode": "ESMLN", "name": "Melilla", "city": "Melilla", "country": "Spain", "lat": 35.32, "lon": -2.88, "province": "Melilla"}, {"unlocode": "ESMOT", "name": "Motril", "city": "Motril", "country": "Spain", "lat": 36.749, "lon": -3.518, "province": "Andalucía"}, {"unlocode": "ESMPG", "name": "Marin, Pontevedra", "city": "Marin, Pontevedra", "country": "Spain", "lat": 42.3915, "lon": -8.7021, "province": "Galicia"}, {"unlocode": "ESPAL", "name": "Palamos", "city": "Palamós", "country": "Spain", "lat": 41.85, "lon": 3.13, "province": "Catalunya"}, {"unlocode": "ESPAS", "name": "Pasajes", "city": "Pasajes", "country": "Spain", "lat": 43.3255, "lon": -1.9301, "province": "Euskadi"}, {"unlocode": "ESPMI", "name": "Palma de Mallorca", "city": "Palma de Mallorca", "country": "Spain", "lat": 39.57, "lon": 2.63, "province": "Balearic Islands"}, {"unlocode": "ESSCT", "name": "Santa Cruz de Tenerife", "city": "Santa Cruz de Tenerife", "country": "Spain", "lat": 28.4636, "lon": -16.2518, "province": "Canarias"}, {"unlocode": "ESSDR", "name": "Santander", "city": "Santander", "country": "Spain", "lat": 43.4623, "lon": -3.81, "province": "Cantabria"}, {"unlocode": "ESSNR", "name": "Santurce", "city": "Santurce", "country": "Spain", "lat": 43.33, "lon": -3.03, "province": "Biskaia"}, {"unlocode": "ESSPC", "name": "Santa Cruz de La Palma", "city": "Santa Cruz de La Palma", "country": "Spain", "lat": 28.68, "lon": -17.77, "province": "Las Palmas"}, {"unlocode": "ESSVQ", "name": "Sevilla", "city": "Sevilla", "country": "Spain", "lat": 37.3891, "lon": -5.9845, "province": "Andalusia"}, {"unlocode": "ESTAR", "name": "Tarragona", "city": "Tarragona", "country": "Spain", "lat": 41.1189, "lon": 1.2445, "province": "Catalonia"}, {"unlocode": "ESTBZ", "name": "Tabuenca", "city": "Tabuenca", "country": "Spain", "lat": 41.6949, "lon": -1.5433, "province": "Zaragoza"}, {"unlocode": "ESTCI", "name": "Tenerife", "city": "Tenerife", "country": "Spain", "lat": 28.32, "lon": -16.57, "province": "Las Palmas"}, {"unlocode": "ESTOT", "name": "Tortosa", "city": "Tortosa", "country": "Spain", "lat": 40.8126, "lon": 0.5214, "province": "Catalonia"}, {"unlocode": "ESVGO", "name": "Vigo", "city": "Vigo", "country": "Spain", "lat": 42.2406, "lon": -8.7207, "province": "Galicia"}, {"unlocode": "ESVLC", "name": "Valencia", "city": "Valencia", "country": "Spain", "lat": 39.4699, "lon": -0.3763, "province": "Valencian Community"}, {"unlocode": "ESZAZ", "name": "Zaragoza", "city": "Zaragoza", "country": "Spain", "lat": 41.6488, "lon": -0.8891, "province": "Aragon"}, {"unlocode": "FIHEL", "name": "Helsingfors (Helsinki)", "city": "Helsingfors (Helsinki)", "country": "Finland", "lat": 60.1733, "lon": 24.941, "province": "Uusimaa"}, {"unlocode": "FIHKO", "name": "Hango (Hanko)", "city": "Hangö (Hanko)", "country": "Finland", "lat": 59.8283, "lon": 22.9659, "province": "Uusimaa"}, {"unlocode": "FIHMN", "name": "Fredrikshamn (Hamina)", "city": "Fredrikshamn (Hamina)", "country": "Finland", "lat": 60.57, "lon": 27.2, "province": "Kymenlaakso"}, {"unlocode": "FIKEM", "name": "Kemi/Tornea (Kemi/Tornio)", "city": "Kemi/Torneå (Kemi/Tornio)", "country": "Finland", "lat": 65.73, "lon": 24.57, "province": "Lappi"}, {"unlocode": "FIKOK", "name": "Karleby (Kokkola)", "city": "Karleby (Kokkola)", "country": "Finland", "lat": 63.83, "lon": 23.12, "province": "Keski-Pohjanmaa"}, {"unlocode": "FIKTK", "name": "Kotka", "city": "Kotka", "country": "Finland", "lat": 60.47, "lon": 26.92, "province": "Kymenlaakso"}, {"unlocode": "FIMTL", "name": "Mantyluoto", "city": "Mantyluoto", "country": "Finland", "lat": 61.5919, "lon": 21.4823, "province": ""}, {"unlocode": "FIOLU", "name": "Oulu", "city": "Oulu", "country": "Finland", "lat": 65.0126, "lon": 25.4715, "province": "Northern Ostrobothnia"}, {"unlocode": "FIOUL", "name": "Oulu (Uleaborg)", "city": "Oulu (Uleåborg)", "country": "Finland", "lat": 65.02, "lon": 25.47, "province": "Pohjois-Pohjanmaa"}, {"unlocode": "FIPOR", "name": "Bjorneborg (Pori)", "city": "Björneborg (Pori)", "country": "Finland", "lat": 61.48, "lon": 21.8, "province": "Satakunta"}, {"unlocode": "FIRAU", "name": "Rauma (Raumo)", "city": "Rauma (Raumo)", "country": "Finland", "lat": 61.13, "lon": 21.5, "province": "Satakunta"}, {"unlocode": "FITKU", "name": "Abo (Turku)", "city": "Åbo (Turku)", "country": "Finland", "lat": 60.45, "lon": 22.28, "province": "Varsinais-Suomi"}, {"unlocode": "FITOR", "name": "Tornea (Tornio)", "city": "Torneå (Tornio)", "country": "Finland", "lat": 65.85, "lon": 24.18, "province": "Lappi"}, {"unlocode": "FJLTK", "name": "Lautoka", "city": "Lautoka", "country": "Fiji", "lat": -17.62, "lon": 177.45, "province": "Western Division"}, {"unlocode": "FJSUV", "name": "Suva", "city": "Suva", "country": "Fiji", "lat": -18.1248, "lon": 178.4501, "province": "Central Division"}, {"unlocode": "FKPSY", "name": "Port Stanley", "city": "Port Stanley", "country": "Falkland Islands (Malvinas)", "lat": -51.6977, "lon": -57.8517, "province": "East Falkland"}, {"unlocode": "FMPNI", "name": "Pohnpei (ex Ponape)", "city": "Pohnpei (ex Ponape)", "country": "Micronesia, Federated States of", "lat": 6.8541, "lon": 158.2624, "province": "Pohnpei"}, {"unlocode": "FOTHO", "name": "Thorshavn", "city": "Thorshavn", "country": "Faroe Islands", "lat": 62.02, "lon": -6.77, "province": ""}, {"unlocode": "FRBAS", "name": "Bassens", "city": "Bassens", "country": "France", "lat": 44.8998, "lon": -0.5162, "province": "Gironde"}, {"unlocode": "FRBAY", "name": "Bayonne", "city": "Bayonne", "country": "France", "lat": 43.4929, "lon": -1.4748, "province": "Pyrénées-Atlantiques"}, {"unlocode": "FRBES", "name": "Brest", "city": "Brest", "country": "France", "lat": 48.4, "lon": -4.48, "province": "Finistère"}, {"unlocode": "FRBOD", "name": "Bordeaux", "city": "Bordeaux", "country": "France", "lat": 44.8378, "lon": -0.5792, "province": "Gironde"}, {"unlocode": "FRBOL", "name": "Boulogne-sur-Mer", "city": "Boulogne-sur-Mer", "country": "France", "lat": 50.72, "lon": 1.62, "province": "Pas-de-Calais"}, {"unlocode": "FRCQF", "name": "Calais", "city": "Calais", "country": "France", "lat": 50.9513, "lon": 1.8587, "province": "Pas-de-Calais"}, {"unlocode": "FRDKK", "name": "Dunkerque", "city": "Dunkerque", "country": "France", "lat": 51.0344, "lon": 2.3768, "province": "Nord"}, {"unlocode": "FRDPE", "name": "Dieppe", "city": "Dieppe", "country": "France", "lat": 49.923, "lon": 1.0775, "province": "Seine-Maritime"}, {"unlocode": "FRFOS", "name": "Fos-sur-Mer", "city": "Fos-sur-Mer", "country": "France", "lat": 43.43, "lon": 4.93, "province": "Bouches-du-Rhône"}, {"unlocode": "FRHGT", "name": "Chitry", "city": "Chitry", "country": "France", "lat": 47.7627, "lon": 3.7024, "province": "Yonne"}, {"unlocode": "FRHON", "name": "Honfleur", "city": "Honfleur", "country": "France", "lat": 46.2476, "lon": 5.1308, "province": "Ain"}, {"unlocode": "FRJAV", "name": "Javrezac", "city": "Javrezac", "country": "France", "lat": 46.2476, "lon": 5.1308, "province": "Ain"}, {"unlocode": "FRLCT", "name": "La Ciotat", "city": "La Ciotat", "country": "France", "lat": 43.1737, "lon": 5.6052, "province": "Bouches-du-Rhône"}, {"unlocode": "FRLEH", "name": "Le Havre", "city": "Le Havre", "country": "France", "lat": 49.4944, "lon": 0.1079, "province": "Seine-Maritime"}, {"unlocode": "FRLPC", "name": "La Planche", "city": "La Planche", "country": "France", "lat": 47, "lon": -1.43, "province": "Loire-Atlantique"}, {"unlocode": "FRLPE", "name": "La Pallice", "city": "La Pallice", "country": "France", "lat": 46.1626, "lon": -1.2051, "province": "Charente-Maritime"}, {"unlocode": "FRLRH", "name": "La Rochelle", "city": "La Rochelle", "country": "France", "lat": 46.1603, "lon": -1.1511, "province": "Charente-Maritime"}, {"unlocode": "FRLRT", "name": "Lorient", "city": "Lorient", "country": "France", "lat": 47.7483, "lon": -3.3702, "province": "Morbihan"}, {"unlocode": "FRLTR", "name": "Le Treport", "city": "Le Tréport", "country": "France", "lat": 50.0592, "lon": 1.3825, "province": "Seine-Maritime"}, {"unlocode": "FRLVE", "name": "Le Verdon-sur-Mer", "city": "Le Verdon-sur-Mer", "country": "France", "lat": 45.55, "lon": -1.07, "province": "Gironde"}, {"unlocode": "FRMDH", "name": "Mundolsheim", "city": "Mundolsheim", "country": "France", "lat": 48.6435, "lon": 7.7144, "province": "Bas-Rhin"}, {"unlocode": "FRMRS", "name": "Marseille", "city": "Marseille", "country": "France", "lat": 43.3, "lon": 5.4, "province": "Bouches-du-Rhône"}, {"unlocode": "FRMT7", "name": "Monteton", "city": "Monteton", "country": "France", "lat": 44.6222, "lon": 0.2577, "province": "Lot-et-Garonne"}, {"unlocode": "FRMTX", "name": "Montoir-de-Bretagne", "city": "Montoir-de-Bretagne", "country": "France", "lat": 47.33, "lon": -2.15, "province": "Loire-Atlantique"}, {"unlocode": "FRNTE", "name": "Nantes", "city": "Nantes", "country": "France", "lat": 47.2184, "lon": -1.5536, "province": "Loire-Atlantique"}, {"unlocode": "FROR6", "name": "La Groise", "city": "La Groise", "country": "France", "lat": 50.0788, "lon": 3.6818, "province": "Nord"}, {"unlocode": "FRPAR", "name": "Paris", "city": "Paris", "country": "France", "lat": 48.8566, "lon": 2.3522, "province": "Paris"}, {"unlocode": "FRPIR", "name": "Piriac-sur-Mer", "city": "Piriac-sur-Mer", "country": "France", "lat": 47.38, "lon": -2.55, "province": "Loire-Atlantique"}, {"unlocode": "FRPOV", "name": "Port-Vendres", "city": "Port-Vendres", "country": "France", "lat": 42.52, "lon": 3.12, "province": "Pyrénées-Orientales"}, {"unlocode": "FRSET", "name": "Sete", "city": "Sète", "country": "France", "lat": 43.4079, "lon": 3.7008, "province": "Hérault"}, {"unlocode": "FRSNR", "name": "Saint-Nazaire", "city": "Saint-Nazaire", "country": "France", "lat": 47.28, "lon": -2.2, "province": "Loire-Atlantique"}, {"unlocode": "FRTLN", "name": "Toulon", "city": "Toulon", "country": "France", "lat": 43.1242, "lon": 5.928, "province": "Var"}, {"unlocode": "FRURO", "name": "Rouen", "city": "Rouen", "country": "France", "lat": 49.4432, "lon": 1.1, "province": "Seine-Maritime"}, {"unlocode": "FRUSJ", "name": "Mus", "city": "Mus", "country": "France", "lat": 43.9517, "lon": 5.2419, "province": "Vaucluse"}, {"unlocode": "GACLZ", "name": "Cap Lopez", "city": "Cap Lopez", "country": "Gabon", "lat": -0.7726, "lon": 8.7812, "province": ""}, {"unlocode": "GALBV", "name": "Libreville", "city": "Libreville", "country": "Gabon", "lat": 0.4162, "lon": 9.4673, "province": "Estuaire"}, {"unlocode": "GAOWE", "name": "Owendo", "city": "Owendo", "country": "Gabon", "lat": 0.338, "lon": 9.4833, "province": "Estuaire"}, {"unlocode": "GAPOG", "name": "Port Gentil", "city": "Port Gentil", "country": "Gabon", "lat": -0.7351, "lon": 8.7591, "province": "Ogooue-Maritime"}, {"unlocode": "GBABD", "name": "Aberdeen", "city": "Aberdeen", "country": "United Kingdom", "lat": 57.13, "lon": -2.1, "province": "Aberdeen City"}, {"unlocode": "GBAVO", "name": "Avonmouth", "city": "Avonmouth", "country": "United Kingdom", "lat": 51.5, "lon": -2.68, "province": "Bristol, City of"}, {"unlocode": "GBBAD", "name": "Barry Dock", "city": "Barry Dock", "country": "United Kingdom", "lat": 51.38, "lon": -3.25, "province": "Vale of Glamorgan, The [Bro Morgannwg GB-BMG]"}, {"unlocode": "GBBDT", "name": "Broadstairs", "city": "Broadstairs", "country": "United Kingdom", "lat": 51.37, "lon": 1.42, "province": "Kent"}, {"unlocode": "GBBEL", "name": "Belfast", "city": "Belfast", "country": "United Kingdom", "lat": 54.98, "lon": -5.92, "province": "Belfast"}, {"unlocode": "GBBOC", "name": "Burnham on Crouch", "city": "Burnham on Crouch", "country": "United Kingdom", "lat": 51.62, "lon": 0.83, "province": "Essex"}, {"unlocode": "GBBOE", "name": "Bootle", "city": "Bootle", "country": "United Kingdom", "lat": 53.47, "lon": -3.02, "province": "Sefton"}, {"unlocode": "GBBOS", "name": "Boston", "city": "Boston", "country": "United Kingdom", "lat": 52.9789, "lon": -0.0266, "province": "Lincolnshire"}, {"unlocode": "GBBRK", "name": "Birkenhead", "city": "Birkenhead", "country": "United Kingdom", "lat": 53.4, "lon": -3.03, "province": "Wirral"}, {"unlocode": "GBBRS", "name": "Bristol", "city": "Bristol", "country": "United Kingdom", "lat": 51.4545, "lon": -2.5879, "province": "Bristol, City of"}, {"unlocode": "GBBRT", "name": "Bridlington", "city": "Bridlington", "country": "United Kingdom", "lat": 54.08, "lon": -0.2, "province": "East Riding of Yorkshire"}, {"unlocode": "GBBRW", "name": "Bridgwater", "city": "Bridgwater", "country": "United Kingdom", "lat": 51.1279, "lon": -3.0036, "province": "Somerset"}, {"unlocode": "GBCDF", "name": "Cardiff", "city": "Cardiff", "country": "United Kingdom", "lat": 51.5, "lon": -3.2, "province": "Cardiff [Caerdydd GB-CRD]"}, {"unlocode": "GBCFG", "name": "Carrickfergus", "city": "Carrickfergus", "country": "United Kingdom", "lat": 54.7262, "lon": -5.8101, "province": "Carrickfergus"}, {"unlocode": "GBCHD", "name": "Charleston", "city": "Charleston", "country": "United Kingdom", "lat": 56.5998, "lon": -3.0063, "province": "Angus"}, {"unlocode": "GBCYN", "name": "Cairnryan", "city": "Cairnryan", "country": "United Kingdom", "lat": 54.97, "lon": -5.02, "province": "Dumfries and Galloway"}, {"unlocode": "GBDUN", "name": "Dundee", "city": "Dundee", "country": "United Kingdom", "lat": 56.5, "lon": -2.97, "province": "Dundee City"}, {"unlocode": "GBDVR", "name": "Dover", "city": "Dover", "country": "United Kingdom", "lat": 51.1279, "lon": 1.3134, "province": "Kent"}, {"unlocode": "GBEDI", "name": "Edinburgh", "city": "Edinburgh", "country": "United Kingdom", "lat": 55.95, "lon": -3.2, "province": "Edinburgh, City of"}, {"unlocode": "GBELL", "name": "Ellesmere Port", "city": "Ellesmere", "country": "United Kingdom", "lat": 53.2068, "lon": -2.8874, "province": "Cheshire West and Chester"}, {"unlocode": "GBEON", "name": "Seaton", "city": "Seaton", "country": "United Kingdom", "lat": 50.7053, "lon": -3.0719, "province": "Devon"}, {"unlocode": "GBFAL", "name": "Falmouth", "city": "Falmouth", "country": "United Kingdom", "lat": 50.1526, "lon": -5.0663, "province": "Cornwall"}, {"unlocode": "GBFAW", "name": "Fawley", "city": "Fawley", "country": "United Kingdom", "lat": 50.8268, "lon": -1.3502, "province": "Hampshire"}, {"unlocode": "GBFRB", "name": "Fraserburgh", "city": "Fraserburgh", "country": "United Kingdom", "lat": 57.68, "lon": -2.02, "province": "Aberdeenshire"}, {"unlocode": "GBFXT", "name": "Felixstowe", "city": "Felixstowe", "country": "United Kingdom", "lat": 51.9617, "lon": 1.3513, "province": "Suffolk"}, {"unlocode": "GBGCI", "name": "Guernsey", "city": "Guernsey", "country": "United Kingdom", "lat": 49.4482, "lon": -2.5895, "province": ""}, {"unlocode": "GBGLW", "name": "Glasgow", "city": "Glasgow", "country": "United Kingdom", "lat": 55.83, "lon": -4.25, "province": "Glasgow City"}, {"unlocode": "GBGOO", "name": "Goole", "city": "Goole", "country": "United Kingdom", "lat": 53.72, "lon": -0.87, "province": "East Riding of Yorkshire"}, {"unlocode": "GBGRG", "name": "Grangemouth", "city": "Grangemouth", "country": "United Kingdom", "lat": 56, "lon": -3.72, "province": "Falkirk"}, {"unlocode": "GBGRK", "name": "Greenock", "city": "Greenock", "country": "United Kingdom", "lat": 55.93, "lon": -4.75, "province": "Inverclyde"}, {"unlocode": "GBGSY", "name": "Grimsby", "city": "Grimsby", "country": "United Kingdom", "lat": 53.53, "lon": -0.5, "province": "North East Lincolnshire"}, {"unlocode": "GBGTY", "name": "Great Yarmouth", "city": "Great Yarmouth", "country": "United Kingdom", "lat": 52.5982, "lon": 1.728, "province": "Norfolk"}, {"unlocode": "GBGVS", "name": "Gravesend", "city": "Gravesend", "country": "United Kingdom", "lat": 51.4419, "lon": 0.3708, "province": "Kent"}, {"unlocode": "GBHRW", "name": "Harwich", "city": "Harwich", "country": "United Kingdom", "lat": 51.9347, "lon": 1.2603, "province": "Essex"}, {"unlocode": "GBHUL", "name": "Hull", "city": "Hull", "country": "United Kingdom", "lat": 53.73, "lon": -0.32, "province": "East Riding of Yorkshire"}, {"unlocode": "GBIMM", "name": "Immingham", "city": "Immingham", "country": "United Kingdom", "lat": 53.6, "lon": -0.22, "province": "North East Lincolnshire"}, {"unlocode": "GBINK", "name": "Inverkeithing", "city": "Inverkeithing", "country": "United Kingdom", "lat": 56.03, "lon": -3.3988, "province": "Fife"}, {"unlocode": "GBINV", "name": "Inverness", "city": "Inverness", "country": "United Kingdom", "lat": 57.4778, "lon": -4.2247, "province": "Highland"}, {"unlocode": "GBIPS", "name": "Ipswich", "city": "Ipswich", "country": "United Kingdom", "lat": 52.0567, "lon": 1.1482, "province": "Suffolk"}, {"unlocode": "GBIRL", "name": "Irlam", "city": "Irlam", "country": "United Kingdom", "lat": 53.43, "lon": -2.42, "province": "Trafford"}, {"unlocode": "GBKLN", "name": "King's Lynn", "city": "King's Lynn", "country": "United Kingdom", "lat": 52.75, "lon": 0.38, "province": "Norfolk"}, {"unlocode": "GBLAN", "name": "Lancaster", "city": "Lancaster", "country": "United Kingdom", "lat": 54.0466, "lon": -2.8007, "province": "Lancashire"}, {"unlocode": "GBLGP", "name": "London Gateway Port", "city": "London Gateway", "country": "United Kingdom", "lat": 51.5, "lon": 0.48, "province": "Essex"}, {"unlocode": "GBLIV", "name": "Liverpool", "city": "Liverpool", "country": "United Kingdom", "lat": 53.42, "lon": -3, "province": "Liverpool"}, {"unlocode": "GBLON", "name": "London", "city": "London", "country": "United Kingdom", "lat": 51.5074, "lon": -0.1278, "province": "London, City of"}, {"unlocode": "GBMAL", "name": "Maldon", "city": "Maldon", "country": "United Kingdom", "lat": 51.7318, "lon": 0.6714, "province": "Essex"}, {"unlocode": "GBMCD", "name": "Macduff", "city": "Macduff", "country": "United Kingdom", "lat": 57.67, "lon": -2.48, "province": "Aberdeenshire"}, {"unlocode": "GBMID", "name": "Middlesbrough", "city": "Middlesbrough", "country": "United Kingdom", "lat": 54.57, "lon": -1.15, "province": "Redcar and Cleveland"}, {"unlocode": "GBMNS", "name": "Moaness, Hoy", "city": "Moaness, Hoy", "country": "United Kingdom", "lat": 58.9164, "lon": -3.3108, "province": "Orkney Islands"}, {"unlocode": "GBMON", "name": "Montrose", "city": "Montrose", "country": "United Kingdom", "lat": 56.7, "lon": -2.45, "province": "Angus"}, {"unlocode": "GBMRY", "name": "Maryport", "city": "Maryport", "country": "United Kingdom", "lat": 54.7144, "lon": -3.4949, "province": "Cumbria"}, {"unlocode": "GBNCL", "name": "Newcastle upon Tyne", "city": "Newcastle upon Tyne", "country": "United Kingdom", "lat": 54.97, "lon": -1.6, "province": "Newcastle upon Tyne"}, {"unlocode": "GBNFT", "name": "Northfleet", "city": "Northfleet", "country": "United Kingdom", "lat": 51.4411, "lon": 0.3369, "province": "Kent"}, {"unlocode": "GBNHV", "name": "Newhaven", "city": "Newhaven", "country": "United Kingdom", "lat": 50.7931, "lon": 0.0456, "province": "East Sussex"}, {"unlocode": "GBNLN", "name": "Nelson", "city": "Nelson", "country": "United Kingdom", "lat": 53.8352, "lon": -2.2194, "province": "Lancashire"}, {"unlocode": "GBNPT", "name": "Newport", "city": "Newport", "country": "United Kingdom", "lat": 51.5812, "lon": -3.0306, "province": "Blaenau Gwent"}, {"unlocode": "GBPFT", "name": "Purfleet", "city": "Purfleet", "country": "United Kingdom", "lat": 51.4867, "lon": 0.2433, "province": "Essex"}, {"unlocode": "GBPLY", "name": "Plymouth", "city": "Plymouth", "country": "United Kingdom", "lat": 50.4, "lon": -4.12, "province": "England"}, {"unlocode": "GBPME", "name": "Portsmouth", "city": "Portsmouth", "country": "United Kingdom", "lat": 50.8198, "lon": -1.088, "province": "Hampshire"}, {"unlocode": "GBPOO", "name": "Poole", "city": "Poole", "country": "United Kingdom", "lat": 50.715, "lon": -1.9872, "province": "Dorset"}, {"unlocode": "GBPRE", "name": "Preston", "city": "Preston", "country": "United Kingdom", "lat": 53.75, "lon": -2.72, "province": "Lancashire"}, {"unlocode": "GBPRU", "name": "Portbury", "city": "Portbury", "country": "United Kingdom", "lat": 51.47, "lon": -2.72, "province": "North Somerset"}, {"unlocode": "GBPST", "name": "Parkeston Quay", "city": "Parkeston Quay", "country": "United Kingdom", "lat": 51.9445, "lon": 1.2558, "province": "Essex"}, {"unlocode": "GBQUB", "name": "Queenborough", "city": "Queenborough", "country": "United Kingdom", "lat": 51.4173, "lon": 0.747, "province": "Kent"}, {"unlocode": "GBRYE", "name": "Rye", "city": "Rye", "country": "United Kingdom", "lat": 50.9497, "lon": 0.7373, "province": "East Sussex"}, {"unlocode": "GBSCA", "name": "Scarborough", "city": "Scarborough", "country": "United Kingdom", "lat": 54.2831, "lon": -0.3998, "province": "North Yorkshire"}, {"unlocode": "GBSHS", "name": "Sheerness", "city": "Sheerness", "country": "United Kingdom", "lat": 51.4401, "lon": 0.7642, "province": "Kent"}, {"unlocode": "GBSOU", "name": "Southampton", "city": "Southampton", "country": "United Kingdom", "lat": 50.9097, "lon": -1.4044, "province": "Hampshire"}, {"unlocode": "GBSOW", "name": "Stanlow", "city": "Stanlow", "country": "United Kingdom", "lat": 52.58, "lon": -2.3, "province": "Shropshire"}, {"unlocode": "GBSSH", "name": "South Shields", "city": "South Shields", "country": "United Kingdom", "lat": 54.98, "lon": -1.42, "province": "South Tyneside"}, {"unlocode": "GBSUN", "name": "Sunderland", "city": "Sunderland", "country": "United Kingdom", "lat": 54.9, "lon": -1.38, "province": "Sunderland"}, {"unlocode": "GBSVT", "name": "Silvertown", "city": "Silvertown", "country": "United Kingdom", "lat": 51.5, "lon": 0.03, "province": "England"}, {"unlocode": "GBSWA", "name": "Swansea", "city": "Swansea", "country": "United Kingdom", "lat": 51.63, "lon": -3.97, "province": "Swansea [Abertawe GB-ATA]"}, {"unlocode": "GBTEE", "name": "Teesport", "city": "Teesport", "country": "United Kingdom", "lat": 54.58, "lon": -1.15, "province": "Redcar and Cleveland"}, {"unlocode": "GBTHP", "name": "Thamesport", "city": "Thamesport", "country": "United Kingdom", "lat": 51.2787, "lon": 0.5217, "province": "Kent"}, {"unlocode": "GBTIL", "name": "Tilbury", "city": "Tilbury", "country": "United Kingdom", "lat": 51.463, "lon": 0.3605, "province": "Essex"}, {"unlocode": "GBTYN", "name": "Tyne", "city": "Tyne", "country": "United Kingdom", "lat": 55, "lon": -1.43, "province": "Newcastle upon Tyne"}, {"unlocode": "GBWDN", "name": "Widnes", "city": "Widnes", "country": "United Kingdom", "lat": 53.35, "lon": -2.73, "province": "Halton"}, {"unlocode": "GBWOR", "name": "Workington", "city": "Workington", "country": "United Kingdom", "lat": 54.6436, "lon": -3.5428, "province": "Cumbria"}, {"unlocode": "GBYVZ", "name": "Stonehouse", "city": "Stonehouse", "country": "United Kingdom", "lat": 51.7439, "lon": -2.279, "province": "Gloucestershire"}, {"unlocode": "GDSTG", "name": "Saint George's", "city": "Saint George's", "country": "Grenada", "lat": 12.0561, "lon": -61.7488, "province": "Saint George"}, {"unlocode": "GEBUS", "name": "Batumi", "city": "Batumi", "country": "Georgia", "lat": 41.6168, "lon": 41.6367, "province": "Adjara"}, {"unlocode": "GEPTI", "name": "Poti", "city": "Poti", "country": "Georgia", "lat": 42.1583, "lon": 41.6714, "province": "Samegrelo-Upper Svaneti"}, {"unlocode": "GETBS", "name": "Tbilisi", "city": "Tbilisi", "country": "Georgia", "lat": 41.7151, "lon": 44.8271, "province": "Tbilisi"}, {"unlocode": "GFCAY", "name": "Cayenne", "city": "Cayenne", "country": "French Guiana", "lat": 4.9224, "lon": -52.3135, "province": "Cayenne"}, {"unlocode": "GFDDC", "name": "Degrad des Cannes", "city": "Dégrad des Cannes", "country": "French Guiana", "lat": 4.85, "lon": -52.27, "province": "Cayenne"}, {"unlocode": "GHTEM", "name": "Tema", "city": "Tema", "country": "Ghana", "lat": 5.7089, "lon": 0.0187, "province": "Greater Accra"}, {"unlocode": "GHTKD", "name": "Takoradi", "city": "Takoradi", "country": "Ghana", "lat": 4.9016, "lon": -1.7831, "province": "Western"}, {"unlocode": "GIGIB", "name": "Gibraltar", "city": "Gibraltar", "country": "Gibraltar", "lat": 36.1408, "lon": -5.3536, "province": ""}, {"unlocode": "GMBJL", "name": "Banjul", "city": "Banjul", "country": "Gambia", "lat": 13.4549, "lon": -16.579, "province": "Banjul"}, {"unlocode": "GNCKY", "name": "Conakry", "city": "Conakry", "country": "Guinea", "lat": 9.6412, "lon": -13.5784, "province": "Conakry"}, {"unlocode": "GPBBR", "name": "Basse-Terre", "city": "Basse-Terre", "country": "Guadeloupe", "lat": 16, "lon": -61.72, "province": "Basse-Terre"}, {"unlocode": "GPGUS", "name": "Gustavia", "city": "Gustavia", "country": "Guadeloupe", "lat": 17.8969, "lon": -62.8487, "province": ""}, {"unlocode": "GPPTP", "name": "Pointe-a-Pitre", "city": "Pointe-à-Pitre", "country": "Guadeloupe", "lat": 16.2377, "lon": -61.534, "province": "Grande-Terre"}, {"unlocode": "GPSBH", "name": "Saint Barthelemy", "city": "Saint Barthelemy", "country": "Guadeloupe", "lat": 16.2544, "lon": -61.5324, "province": "Pointe-à-Pitre"}, {"unlocode": "GQBSG", "name": "Bata", "city": "Bata", "country": "Equatorial Guinea", "lat": 1.8533, "lon": 9.779, "province": "Litoral"}, {"unlocode": "GQSSG", "name": "Malabo", "city": "Malabo", "country": "Equatorial Guinea", "lat": 3.7504, "lon": 8.7371, "province": "Bioko Norte"}, {"unlocode": "GRAST", "name": "Astakos", "city": "Astakós", "country": "Greece", "lat": 38.53, "lon": 21.08, "province": "Peloponnisos Dytiki Ellada ke Ionio"},